,Address,Cusines,Restaurant,Latitude,Longitude,Clusters
0,1 Tyrwhitt Road Singapore (207522),"American, Bar, Italian, Vegetarian Friendly",1 Tyrwhitt Bistro Bar,1.3090771,103.858211,8
1,1 Raffles Place Level 63Singapore,"Australian, Fusion, Burgers",1-Altitude,1.2829077,103.8513873,49
2,"10 Artillery Ave The Outpost Hotel, Level 7Singapore (099951)",Modern Asian,1-V:U – Restaurant and Day Club,1.2518488,103.8198682,14
3,"Grand Hyatt Singapore,10 Scotts Road,Lobby Level, Singapore (228211)","Bar, Buffet, Japanese, Seafood, British",10 SCOTTS,1.3065838,103.8331003,11
4,123A Telok Ayer Street Singapore (068592),Modern European,13% Wine Bistro @ Telok Ayer,1.2812115,103.8480053,4
5,15 Stamford Road The Capitol Kempinski Hotel Singapore (178906),Modern Asian,15 Stamford by Alvin Leung (The Capitol Kempinski Hotel Singapore),1.293891,103.8513613,16
6,9 Wallich Street Sofitel Singapore City Centre Singapore (078885),"Bar, Fusion",1864,1.2768338,103.8454143,31
7,35 Robinson Road Singapore (068876),"Bar, Modern European, Fusion",1927,1.2799728,103.8497276,4
8,1 Jalan Rajah Singapore (329133),"Buffet, Vegetarian Friendly, Local, Halal Certified",21 on Rajah,1.3269818,103.8475066,26
9,44/46 Tanjong Pagar Road Singapore (08846),"Korean, Vegetarian Friendly, BBQ",2D1N Soju Bang,1.2793185,103.8437729,31
10,176 Orchard Road#01-49The Centrepoint Singapore (238843),"Fusion, Local",49 Seats,1.3021165,103.839761,38
11,107 North Bridge Road#02-17Funan Mall Singapore (179105),"Modern European, French, Fusion, Seafood, Cafe",5 Senses Bistro (Funan Mall),1.291321,103.8500832,24
12,1 Vista Exchange Green#02-21The Star Vista Singapore (138617),"Bar, Japanese, International, Seafood",5 Senses Bistro (The Star Vista),1.3067634,103.7884236,9
13,51 Telok Ayer Street#01-01Singapore (048441),"Modern European, Modern Asian",51 Soho,1.2829964,103.8491447,4
14,566 Woodlands Road Singapore (728697),"Chinese, Seafood",566 Seafood & Beer Garden At Mandai Hill,1.408016,103.7574289,13
15,5 Fraser Street Level 38Andaz Singapore Singapore (189354),Steakhouse,665°F,1.2992107,103.8577253,16
16,23 Cuppage Road Singapore (229453),"Bar, Chinese, Seafood, Vegetarian Friendly, BBQ",6ix 6ix 六六,1.301676,103.8401411,38
17,1/A Tampines Street 92#03-02SAFRA Tampines Singapore (528882),"Bar, Fusion, Cafe",7th Heaven KTV & Cafe,1.3445675,103.9417986,15
18,1 Scotts Road#04-20/21Shaw Centre Singapore (228208),"Korean, BBQ",8 Korean BBQ (Shaw Centre),1.3062411,103.8318312,11
19,6 Eu Tong Sen Street#02-79//90The Central Singapore (059817),"Korean, BBQ",8 Korean BBQ (The Central),1.2892725,103.8463546,24
20,43 Woodlands Avenue 9SIT@RP Singapore (737729),"All-Day Breakfast, Cafe",9th ave.,1.4440819,103.7837001,19
21,333 New Bridge Road Singapore (088765),"American, Bar, Buffet, International, Seafood, All-Day Breakfast, British, Vegetarian Friendly, Local, Peranakan, Cafe",A*MUSE Social Gathering,1.2796464,103.8400603,31
22,79 Boat Quay Singapore (049867),"Bar, Japanese, Burgers, BBQ",Aburiya (Boat Quay),1.2883575,103.8492665,24
23,400 Upper Bukit Timah Road Singapore (678050),"Italian, Vegetarian Friendly",Acqua e Farina,1.3581309,103.7678974,48
24,10 Bayfront Avenue Tower 2 Lobby Marina Bay Sands Singapore (018956),American,Adrift by David Myers,1.2834492,103.8589451,49
25,24 Keong Saik Road Singapore (089131),Vegetarian,Afterglow,1.2801053,103.8416799,31
26,1A Cuscaden Road Level 4Hotel Jen Tanglin Singapore Singapore (249716),"Chinese, Seafood, Local, Peranakan, Zi Char",Ah Hoi's Kitchen,1.304358,103.82392,44
27,5 Lorong Telok Singapore (049018),"Chinese, Local",Ah Ter Teochew Fishball Noodle Bar,1.2870334,103.8487157,24
28,2 Venture Drive#02-43Vision Exchange Singapore (608526),Korean,Ahtti Korean Restaurant,1.3299165,103.7445695,3
29,30 Beach Road Level B1MJW Marriott Hotel Singapore South Beach Singapore (189763),"Japanese, Korean",Akira Back,1.2944085,103.8560531,16
30,383 Bukit Timah Road#01-02Alocassia Apartments Singapore (259727),"Italian, Seafood, Steakhouse, Vegetarian Friendly",Al Borgo @ Alocassia Apartments,1.3195254,103.8275419,44
31,"400 East Coast Road,Le Peranakan Hotel,Singapore (428996)","Italian, Vegetarian Friendly",Al Forno (East Coast) Italian Restaurant,1.3088164,103.9119891,23
32,693A East Coast Road Singapore (459058),"Bar, Italian, All-Day Breakfast, Vegetarian Friendly, Pizza",Al Forno Tapas & Wine Bar,1.3118299,103.9219039,6
33,73 Amoy Street Singapore (069892),"Seafood, Greek, Vegetarian Friendly",Alati Divine Greek Cuisine,1.2803267,103.846598,4
34,"15 Bussorah St, Singapore 199436","Middle Eastern, Vegetarian Friendly, Mediterranean",Alaturka Turkish & Mediterranean Restaurant,1.301179,103.8599691,8
35,39 Tyrwhitt Road Singapore (207538),"Buffet, Chinese, Seafood, Modern Asian",alittle tashi,1.3099981,103.8589681,8
36,2 Emerald Hill Road Peranakan Place Singapore (229287),"Bar, Local, Pizza",Alley Bar,1.3014424,103.8392721,38
37,5 Fraser Street Level 25Andaz Singapore Singapore (189354),"Buffet, Seafood, Vegetarian Friendly, Burgers, Modern Asian",Alley on 25,1.2992107,103.8577253,16
38,22 Scotts Road Goodwood Park Hotel Singapore (228221),Modern European,Alma By Juan Amador,1.3084774,103.834405,11
39,30 Victoria Street Singapore (187996),"Bar, Fusion, Vegetarian Friendly",Almost Famous Craft Beer Bar,1.2953653,103.852459,16
40,8 Raffles Avenue#01-13D Esplanade Mall Singapore (039802),"American, Bar, Fusion, Cafe",Alter Ego,1.2892364,103.8564027,12
41,76 Namly Place Singapore (267226),"Italian, Pizza",Amano,1.3243611,103.7968008,30
42,30 Robertson Quay#01-16Singapore (238251),"Bar, Japanese",Amazing Hokkaido,1.291333,103.8414166,34
43,1 Choa Chu Kang Grove Singapore (688236),International,Amber West,1.3748318,103.751726,13
44,9 Bishan Place#02-19/20/27Junction 8 Shopping Centre Singapore (579837),"Modern European, French, Italian, Spanish, Seafood, German, Cafe",Ambush-Pan European Dining (Junction 8),1.3506808,103.8487631,10
45,33 Hongkong Street Singapore (059672),"Bar, Italian, Vegetarian Friendly, Pizza",Amò,1.2874616,103.8471597,24
46,30 Victoria Street#01-13Chijmes Singapore (187996),Indian,Anglo Indian Cafe & Bar (CHIJMES),1.2951699,103.8521957,16
47,5 Straits View#01-10Marina One Singapore (018935),Indian,Anglo Indian Cafe & Bar (Marina One),1.2780388,103.8531501,49
48,1 Shenton Way#01-08Singapore (068803),Indian,Anglo Indian Cafe & Bar (Shenton Way),1.2796774,103.8506343,4
49,83 Duxton Road Singapore (089540),Chinese,Anouska's Restaurant and Bar,1.2786983,103.84319,31
50,80 Bras Basah Road Level 1Fairmont Singapore Singapore (189560),"Bar, Modern European, British, Vegetarian Friendly, Cafe, Vegetarian, Dessert Only",Anti:dote,1.293396,103.8534619,16
51,65 Serangoon Garden Way Singapore (555961),"Fusion, All-Day Breakfast, Cafe",Apollo Coffee Bar,1.3635104,103.865592,10
52,"323 Alexandra Road,Level 7Park Hotel Alexandra Singapore (159972)",Bar,Aqua Luna,1.2875458,103.8054094,27
53,109 Mount Faber Road Faber Peak Singapore Singapore (099203),Fusion,Arbora (formerly Spuds & Aprons),1.2713286,103.8194656,40
54,1 Fusionopolis View#01-02Sandcrawler Building Singapore (138577),Middle Eastern,Arkadas Cafe,1.2998378,103.7892136,9
55,60 Race Course Road Singapore (218567),"Indian, Fusion, Middle Eastern, Vegetarian Friendly",Aromas of India,1.3084757,103.8511286,8
56,1 St Andrew’s Road#06-02National Gallery Singapore (178957),Italian,Art,1.2902217,103.8515167,24
57,80 Middle Road Level 1Inter Continental Singapore Singapore (188966),Modern European,Ash & Elm,1.2983644,103.8549173,16
58,30 Victoria Street#01-23CHIJMES Singapore (187996),Japanese,Ashino,1.295092,103.852657,16
59,331 North Bridge Road#01-02 & #01-05/08 Odeon Towers Singapore (188720),"Chinese, Seafood, Dim Sum",Asia Grand Restaurant,1.2962396,103.8532832,16
60,80 Bras Basah Road Level 2Fairmont Singapore Singapore (189560),"Buffet, Malaysian, Fusion, International, Seafood, Vegetarian Friendly, Local, Southeast Asian",Asian Market Cafe,1.293396,103.8534619,16
61,6 Duke's Road Singapore (268886),"Fusion, All-Day Breakfast, Vegetarian Friendly, Cafe",Atlas Coffeehouse,1.3228827,103.811981,30
62,317 Outram Road Singapore (169075),"American, Bar, Local",Atrium Bar 317,1.2889969,103.834125,0
63,317 Outram Road Level 4Holiday Inn Singapore Atrium Singapore (169075),"Buffet, Fusion, International, Seafood, All-Day Breakfast, Vegetarian Friendly, Local, Halal Certified, Cafe",Atrium Restaurant,1.2891631,103.8342067,0
64,5 Fraser Street Level 25Andaz Singapore Singapore (189354),"Chinese, International, Vegetarian Friendly, Local",Auntie's Wok & Steam,1.2992107,103.8577253,16
65,47 Amoy Street Singapore (069873),"Bar, Modern Asian",Avenue 87,1.2804021,103.8469907,4
66,176 Orchard Road#01-33H The Centrepoint Singapore (238843),Indian,Awadh,1.3021165,103.839761,38
67,1 Seletar Road#02-02Greenwich V Singapore (807011),Cafe,Awfully Chocolate (Greenwich V),1.3873705,103.8694069,41
68,30 Robertson Quay#01-12Singapore (238251),"Buffet, Japanese",Azmaya,1.291333,103.8414166,34
69,5 Koek Road#03-24Cuppage Plaza Singapore (228796),"Buffet, Japanese, Steamboat",Azmaya Honten (Cuppage Plaza),1.3019646,103.8407001,38
70,86 East Coast Road Katong Square Singapore (428788),Modern Asian,Baba Chews Bar and Eatery,1.3047255,103.9046894,23
71,27 Lichfield Road Singapore (556847),Italian,Baci Baci,1.364913,103.8702518,36
72,22 Sam Leong Road Singapore (207913),"American, Bar, Fusion, Seafood, Vegetarian Friendly, Pizza, Burgers, Vegetarian",Bailamos Bistro Bar & Cafe,1.309362,103.8568559,8
73,3 Seng Poh Road Singapore (168891),Greek,Bakalaki Greek Taverna,1.2855878,103.8341703,0
74,1 Woodlands Square#05-05Causeway Point Singapore (738099),"Indonesian, Thai, Fusion, Halal Certified",Bali Thai (Causeway Point),1.4360933,103.7859471,19
75,2 Jurong East Street 21#01-21IMM Singapore (609601),"Indonesian, Thai, Fusion, Halal Certified",Bali Thai (IMM),1.3348154,103.7468395,3
76,23 Serangoon Central#02-13NEX Singapore (556083),"Indonesian, Thai, Fusion, Halal Certified",Bali Thai (NEX),1.3507723,103.8722585,36
77,391A Orchard Road#05-29 Ngee Ann City Podium Block Singapore (238873),"Indonesian, Thai, Fusion, Halal Certified",Bali Thai (Ngee Ann City),1.3025572,103.834568,11
78,3 Temasek Boulevard#B1-121A/121B Suntec City Singapore (038983),"Indonesian, Thai, Fusion, Halal Certified",Bali Thai (Suntec City),1.29503,103.8583026,12
79,83 Punggol Central#B1-13Waterway Point Singapore (828761),"Indonesian, Thai, Fusion, Halal Certified",Bali Thai (Waterway Point),1.40669,103.9021738,1
80,38-40 Tras Street Singapore (078977),"Spanish, Vegetarian Friendly",BAM! Restaurant,1.2783924,103.8443423,31
81,80 Marine Parade Road#03-01/02A Parkway Parade Singapore (449269),Indian,The Banana Leaf Apolo (Parkway Parade),1.3013366,103.9052333,23
82,1 Jelebu Road#02-18Singapore (677743),Thai,Bangkok Jam (Bukit Panjang Plaza),1.3799623,103.7643089,13
83,1 Kim Seng Promenade#02-127Great World City Singapore (237994),"Thai, Fusion",Bangkok Jam (Great World City),1.2926499,103.8322968,0
84,6 Raffles Boulevard#02-105B/C Marina Square Singapore (039594),Thai,Bangkok Jam (Marina Square),1.2911534,103.8576778,12
85,68 Orchard Road#03-85Plaza Singapura Singapore (238839),Thai,Bangkok Jam (Plaza Singapura),1.3005317,103.8452356,38
86,4 Jiak Chuan Road Singapore (089261),"Bar, Cafe",Bao Makers,1.2796626,103.841782,31
87,879 Bukit Timah Road Singapore (279892),"American, Bar, Indian, Vegetarian Friendly, Southeast Asian, Pizza, Burgers",Bar Bar Black Sheep (Bukit Timah),1.332671,103.79114,17
88,86 Robertson Quay#01-04Robertson Blue Singapore,"American, Bar, Indian, Vegetarian Friendly, Local, Southeast Asian, Burgers, BBQ",Bar Bar Black Sheep (Robertson Quay),1.2900394,103.8373405,34
89,3 Temasek Boulevard#01-602Suntec City Tower 4Singapore (038983),"Bar, Chinese, BBQ",Bar Bar Q,1.29503,103.8583026,12
90,270 Orchard Road Grand Park Orchard Singapore (238857),Bar,Bar Canary,1.3035171,103.836278,11
91,2 Stamford Road Level 70Swissotel the Stamford Singapore (178882),Bar,Bar Rouge,1.2932771,103.8535076,16
92,48 Prinsep Street#01-01/#02-01Singapore (188675),"Bar, Chinese, Malaysian, Seafood, Local, Peranakan, Zi Char, BBQ",Bar-beque,1.2996611,103.8497482,45
93,165 Tanjong Pagar#01-00Singapore (088539),"Bar, Modern European, French",Bar-Roque Grill,1.2750316,103.8435506,31
94,1 Harbour Front Walk#01-161/162Vivo City Singapore (098585),"Bar, Australian, Steakhouse, Burgers",Barossa Bar & Grill (VivoCity),1.2647884,103.822894,40
95,8 Raffles Avenue#01-11Esplanade Mall Singapore (039802),"Bar, Australian, International, Pizza, Burgers",Barossa Gastrobar (Esplanade),1.2899102,103.8564376,12
96,21 Duxton Hill Singapore (089604),"Bar, Spanish, Fusion",Bar·Celona,1.278527,103.8425029,31
97,920 East Coast Parkway#01-20 to 24Parkland Green Singapore (449875),"Thai, Fusion, Vegetarian Friendly, Burgers, BBQ",Basil & Thyme,1.298860,103.905823,23
98,1 Cuscaden Road Level 2Regent Singapore Singapore (249715),"Italian, Vegetarian Friendly",Basilico,1.3046549,103.8249313,44
99,97 Amoy Street Singapore (069917),"Spanish, Vegetarian Friendly",Basque Kitchen by Aitor,1.281337,103.847328,4
100,3A River Valley Road#01-05Singapore (179020),Indonesian,Bayang,1.295877,103.8397203,38
101,2 Keppel Bay Vista Marina At Keppel Bay Singapore (098382),"Bar, Fusion, Seafood",Bayswater Kitchen,1.2640448,103.8125054,40
102,30 Beach Road JW Marriott Singapore South Beach Singapore (189763),"Buffet, International, Seafood, Local",Beach Road Kitchen,1.2944085,103.8560531,16
103,6 Raffles Boulevard#01-01/02/03Marina Square Singapore (039594),"Bar, Italian",The Beacon,1.2924739,103.8565218,12
104,8 Craig Road Singapore (089668),"Australian, Cafe",Bearded Bella,1.2776408,103.8428254,31
105,90 Robertson Quay Singapore (238259),"Bar, Modern European, Fusion, Modern Asian",Beast & Butterflies,1.2908075,103.8372952,34
106,17 Jalan Klapa Singapore (199329),"American, Bar, All-Day Breakfast, Cajun",The Beast,1.3042819,103.8596373,8
107,1359 Serangoon Road Singapore (328241),Fusion,Bee Cheng Hiang Grillery,1.3270219,103.8672731,37
108,50 Cluny Park Road Singapore (257488),"Vegetarian Friendly, Cafe, Pizza",Bee's Knees,1.3189836,103.8155834,30
109,25 Church Street#01-07Capital Square Singapore (049482),"American, Bar, Indian, Fusion, Middle Eastern, Vegetarian Friendly",Beer Factory,1.2840326,103.8484637,4
110,72 Bussorah Street Singapore (199485),"Middle Eastern, Vegetarian Friendly",Beirut Grill,1.3009011,103.8599624,8
111,30 Robertson Quay#01-09Riverside View Singapore (238251),Italian,Bella Pasta,1.291109,103.8411025,34
112,30 Robertson Quay#01-14Riverside View Singapore (238251),"Italian, Pizza",Bella Pizza,1.291109,103.8411025,34
113,135 Jurong Gateway Road#02-337Singapore (600135),Chinese,Beng Hiang Restaurant,1.3338882,103.7404073,3
114,39 Neil Road Singapore (088823),"Fusion, International, Local",Beng Who Cooks,1.279815,103.842894,31
115,583 Orchard Road#01-20/21Forum The Shopping Mall Singapore (238884),All-Day Breakfast,Benjamin Browns,1.3061111,103.8286111,44
116,3 Pickering Street# 01-32/33China Square Central Nankin Row Singapore (048660),Japanese,Beppu Menkan Restaurant,1.2841124,103.847422,4
117,23 Bukit Pasoh Road Singapore (089837),"Modern European, Modern Asian",Beurre,1.279057,103.840518,31
118,181 South Bridge Road#01-04/K3Capri by Fraser Cross Street Exchange Singapore (058743),"Bar, Chinese, Malaysian, Local, Southeast Asian, Cafe, BBQ",BigBrand Satay,1.2835222,103.8469123,4
119,511 Guillemard Road#B1-02/09Grandlink Square Singapore (399849),"Indonesian, Malaysian, Seafood, Local, Southeast Asian, Peranakan, Halal Certified, Modern Asian",Bijan Restaurant,1.3142609,103.8914534,42
120,78 Moh Guan Terrace#01-19Singapore (162078),Japanese,Bincho at Hua Bee,1.2835735,103.8303734,0
121,7A/B Dempsey Road Singapore (249684),Japanese,Bincho at Min Jiang,1.304606,103.8089925,20
122,"20 Craig Road #01-02,Singapore (089692)",Spanish,Binomio,1.2780894,103.8423217,31
123,115 Amoy Street#01-01Singapore (069935),"Bar, Modern European, Chinese, Fusion, Cafe",Birds of a Feather,1.282141,103.847711,4
124,14 Scotts Road#02-59Far East Plaza Singapore (228213),"Japanese, Fusion, Steakhouse, Cafe, Burgers",Biseryu Japanese Restaurant,1.3070854,103.8333034,11
125,7 Fraser Street#01-25/26Duo Galleria Singapore (189356),"Modern European, Modern Asian",Bistro @ Duo,1.2995009,103.8585953,16
126,9 Raffles Blvd#01-79/80Millenia Walk Singapore (039596),"Modern European, French",Bistro G,1.292888,103.8597786,12
127,"61 Pasir Ris Green Pasir Ris Park, Carpark C Singapore (518225)","American, Italian, Vegetarian Friendly, Cafe, Pizza",Bistro Neigh,1.379718,103.94848,47
128,11-15 Jalan Klapa Singapore (199323),"Bar, Fusion, Seafood, Steakhouse, Local, Cafe, Pizza, BBQ, Vegetarian",Bistro XY,1.304325,103.859722,8
129,1 Tanglin Road#01-08Orchard Rendezvous Hotel Singapore (247905),"American, Steakhouse, South American, Burgers, BBQ",Black Angus Steakhouse,1.3065228,103.827668,44
130,118 Holland Avenue#02-01Singapore (278997),"Seafood, Steakhouse, Cafe, Burgers, BBQ",Black Marble,1.3105313,103.7961337,9
131,85 Upper East Coast Road Singapore (455222),"American, Modern European, French, Australian, Fusion, International, Seafood, Steakhouse, Vegetarian Friendly, Modern Asian",Black Pearl Steakhouse,1.3133976,103.9277362,6
132,10 Dempsey Road#01-21Singapore (247700),Greek,Blu Kouzina,1.3033906,103.8104867,20
133,10 Farrer Park Station Road Level 5Park Hotel Farrer Park Singapore (217564),"Thai, Vegetarian Friendly",Blue Jasmine,1.3120943,103.8547668,8
134,31 Ocean Way#01-13Quayside Isle Singapore (098375),"Chinese, Vegetarian Friendly",Blue Lotus Chinese Eating House,1.246831,103.8421169,29
135,Block 1202 East Coast Parkway#01-03East Coast Seafood Centre Singapore (449881),"Chinese, Seafood, Southeast Asian, Steamboat, Zi Char, BBQ",Blue Pier,1.305063,103.929647,6
136,5 Changi Business Park Central 1#01-72/73Changi City Point Singapore (486038),"Bar, Cafe, Pizza",BLVD @ Changi,1.334638,103.9623868,35
137,8 Marina Boulevard#01-02Marina Bay Financial Centre Tower 1Singapore (018981),"Bar, Fusion, Burgers",BLVD @ MBFC,1.2798897,103.8548685,49
138,11 Cove Drive#01-01ONE15 Marina Sentosa Cove Singapore (098497),"Bar, Burgers, BBQ",Boaters' Bar,1.24562,103.8398371,29
139,1 The Knolls Sentosa Island Singapore (098297),Bar,Bob's Bar,1.249141,103.8248866,14
140,115 Amoy Street#01-02Singapore (069935),"Bar, Modern European, Steakhouse, South American",boCHINche,1.2821776,103.8477473,4
141,70 Biopolis Street#01-05Singapore (138547),"Bar, Fusion, Cafe",Bodacious,1.3029085,103.7920137,9
142,8 Raffles Avenue01-13A Esplanade Mall Singapore (039802),"Seafood, South American, Cajun",The Boiler (Esplanade),1.2896635,103.8564438,12
143,18 Howard Road#01-06Novelty Bizcentre Singapore (369585),"Seafood, South American, Cajun",The Boiler (Howard Road),1.3341869,103.885778,2
144,6 Sentosa Gateway#01-05Sentosa Boardwalk Singapore (098072),"Indian, International",Bones 'n Barrels (Sentosa),1.260007,103.823374,40
145,3 Temasek Boulevard#01-641/642Suntec City Singapore (038983),"Korean, BBQ",Bornga (Suntec City),1.29503,103.8583026,12
146,1 Harbourfront Walk#02-123/124Vivocity Singapore (098585),"Korean, BBQ",Bornga (VivoCity),1.2644032,103.8222071,40
147,25 Lorong Mambong Singapore (277684),"Bar, Pizza",Boss Bistro & Bar,1.3114942,103.7945688,9
148,36-37 Pekin Street#01-01Far East Square Singapore (048766),Japanese,Botan Japanese Restaurant,1.2836894,103.8482793,4
149,50 Cluny Park Road The Garage Singapore Botanic Gardens Singapore (257488),"Bar, Modern European",Botanico at The Garage,1.3188018,103.8155363,30
150,28 Kandahar Street Singapore (198889),Japanese,Box n Sticks,1.302176,103.859796,8
151,52 Boat Quay Level 5Singapore (049841),"Italian, Vegetarian Friendly",Braci,1.2870832,103.8493468,24
152,29 Tanglin Road Lobby Level The St. Regis Singapore Singapore (247911),"French, Vegetarian Friendly",Brasserie Les Saveurs (The St. Regis Singapore),1.3055457,103.8260886,44
153,101 Thomson Road B1-13/14United Square Singapore,"Bar, German",Brauhaus Restaurant & Pub,1.3172768,103.8436682,26
154,2 Stadium Walk#01-06/07Singapore Indoor Stadium Singapore (397691),"Bar, Modern Asian",Brewerkz Indoor Stadium,1.2999798,103.8743317,37
155,1 Fullerton Road#01-01Singapore (049213),"Bar, Modern Asian",Brewerkz One Fullerton,1.2856406,103.8539179,49
156,1 Tanglin Road#01-02Orchard Rendezvous Hotel Singapore (247905),"Bar, Modern Asian",Brewerkz Orchard Rendezvous Hotel,1.3065228,103.827668,44
157,30 Merchant Road#01-07Riverside Point Singapore (058282),"Bar, Modern Asian",Brewerkz Riverside Point,1.2894761,103.8441414,34
158,13 Stamford Road#01-84B Arcade @ The Capitol Kempinski Singapore (178905),"American, Cafe",Broadway American Diner,1.2929876,103.8511619,16
159,126 East Coast Road Singapore (428811),"Bar, German",Brotzeit Katong,1.3059001,103.9051352,23
160,252 North Bridge Road#01-17Raffles City Shopping Centre Singapore (179103),"Bar, German",Brotzeit Raffles City,1.2937585,103.8534331,16
161,1 Harbourfront Walk#01-149Vivo City Singapore (098585),"Bar, German",Brotzeit VivoCity,1.2634018,103.8220077,40
162,3 Gateway Drive#01-04Westgate Singapore (608532),"Bar, German",Brotzeit Westgate,1.3345013,103.7426077,3
163,163 Tanglin Road#01-35Tanglin Mall Singapore (247933),"American, Italian, Seafood, Steakhouse, All-Day Breakfast, Vegetarian Friendly, Cafe",Brunetti,1.3048533,103.8236186,44
164,5 Duxton Hill Singapore (089591),"Bar, Modern European, French, German",BTM Mussels & Bar,1.2792538,103.8429506,31
165,81 Anson Road M Hotel Singapore (079908),"Buffet, International, Seafood, Vegetarian Friendly, Steamboat",The Buffet at M Hotel,1.273767,103.8450399,31
166,126 Tanjong Pagar Road Singapore (088534),Italian,Buko Nero,1.2775949,103.8435176,31
167,29 Scotts Road Singapore (228224),Italian,Buona Terra,1.3106807,103.8346232,11
168,2 Kung Chong Road#04-01Singapore (159140),"Italian, Cafe",Burlamacco Cafe & Pizzeria,1.28988,103.812957,27
169,30 Stanley Street Singapore (068739),"Italian, Vegetarian Friendly",Burlamacco Ristorante (Stanley Street),1.280995,103.848373,4
170,217 East Coast Road#01-01Singapore (428915),Italian,Burlamacco Ristorante @ East Coast,1.3075174,103.9069751,23
171,31 Keong Saik Road Singapore (089138),"Bar, Steakhouse, Modern Asian",Butcher Boy,1.2800213,103.8414866,31
172,328 North Bridge Road#02-02 to #02-07Raffles Arcade Singapore (188719)(Accessible via North Bridge Road entrance),Steakhouse,Butcher's Block (Raffles Hotel),1.2955861,103.8540165,16
173,19 Yong Siak Street Singapore (168650),Modern European,The Butcher's Wife,1.2827623,103.8301826,0
174,451 Joo Chiat Road#01-01Katong Point Singapore (427664),Indian,Butter & Spice,1.3068949,103.9043852,23
175,14 Bussorah Street Singapore (199435),"Middle Eastern, Vegetarian Friendly",Byblos Grill,1.3011937,103.8600438,8
176,333A Orchard Road#02-37Mandarin Gallery Singapore (238897),"Japanese, French",béni Singapore,1.3017091,103.8369254,38
177,"80 South Bridge Road, #01-01Singapore (058710)","Japanese, Fusion",Bōruto,1.2869337,103.8477798,24
178,313 Orchard Road#B1-37313@somerset Singapore (238895),"Korean, Cafe",Cafe de Paris,1.300898,103.838361,38
179,70 Collyer Quay#01-05Customs House Singapore (049323),"Modern European, Italian",Caffe Fernet,1.2824913,103.8534753,49
180,64 Club Street Singapore (069438),"Bar, Japanese, Italian, Vegetarian Friendly",Caffé B,1.2816083,103.846037,4
181,81 Anson Road M Hotel Singapore (079908),"Buffet, International, Seafood, Vegetarian Friendly",Café 2000,1.273767,103.8450399,31
182,30 Merchant Road#01-03Riverside Point Singapore (058282),"Bar, Vegetarian Friendly, Mexican",Café Iguana,1.289041,103.8445709,24
183,76 Bras Basah Road Carlton Hotel Singapore (189558),"International, Vegetarian Friendly, Local",Cafe Mosaic,1.2960301,103.8527419,16
184,68 Orchard Road#03-92Plaza Singapura Singapore (238839),"American, Cajun, Halal Certified",Cajun on Wheels (Plaza Singapura),1.3005317,103.8452356,38
185,"2 Finlayson Green Level 2, Ascott Raffles Place Singapore Singapore (049247)","American, Bar, Modern European, Italian, International, Southeast Asian","Cali, Ascott Raffles Place",1.2820375,103.85158,49
186,"31 Rochester Drive#01-01/02Cali, Park Avenue Rochester Hotel Singapore (138637)","American, Bar, Italian, International, Modern Asian","Cali, Park Avenue Rochester Hotel",1.3049379,103.7888898,9
187,22 Camden Park Hollandse Club Singapore (299814),"American, Italian, Fusion, British, Vegetarian Friendly, Local, Cafe, Pizza, Burgers",Camden Hill Restaurant & Bar,1.3298023,103.8164134,30
188,22 Camden Park Singapore (299814),Burgers,Camden Hill Restaurant & Bar (Delivery),1.3300674,103.8163733,30
189,20 Eastwood Road#01-14B Eastwood Centre Singapore (486442),Fusion,Camino House,1.3216364,103.9556659,35
190,Block 17A Dempsey Road Singapore (249676),"Vegetarian Friendly, Southeast Asian, Peranakan",Candlenut,1.3059001,103.8101446,20
191,1382 Ang Mo Kio Ave 1Bishan Park 2Singapore (569931),"American, Fusion",Canopy Bishan,1.3623857,103.8473062,10
192,33 Hyderabad Road #01-01Hort Park Singapore (119578),"Modern European, All-Day Breakfast, Vegetarian Friendly, Cafe, Pizza, Burgers",Canopy HortPark,1.2787362,103.8018322,27
193,80 Stamford Road#B1-61SMU School of Information Systems Singapore (178902),"Cafe, Burgers",Canteen Bistro,1.2975488,103.8494183,45
194,3 Binjai Park Singapore (589819),Italian,Capri Trattoria & Pizzeria,1.3357096,103.7865354,17
195,112 Middle Road#01-00Midland House Singapore (188970),"Fusion, Seafood, Modern Asian",Captain K Seafood Tower,1.2990794,103.8537523,45
196,30 Victoria Street#01-32CHIJMES Singapore (187996),"Buffet, Steakhouse, South American, BBQ",Carnivore Brazilian Churrascaria (CHIJMES),1.2951699,103.8521957,16
197,75E Loewen Road Singapore (248845),"Australian, Vegetarian Friendly, Cafe",Carrotsticks & Cravings (Dempsey),1.3020448,103.8129476,20
198,7 Rodyk Street#01-34Singapore (238215),"Australian, All-Day Breakfast, Cafe",Carrotsticks & Cravings (Robertson Quay),1.2904731,103.8382463,34
199,"791 Bukit Timah Road #01-01,Singapore (269764)",Italian,Caruso Ristorante,1.3310862,103.7960996,17
200,323 Alexandra Road Level 7Park Hotel Alexandra Singapore (159972),"Buffet, Modern European, Vegetarian Friendly",The Carvery,1.2875458,103.8054094,27
201,200 Turf Club Road#01-09The Grandstand Singapore (287994),"Modern European, Italian",Casa Roma Ristorante Italiano,1.3380084,103.7934418,17
202,6 Mohamed Sultan Road Singapore (238956),"Italian, Vegetarian Friendly",Casa Tartufo,1.2939978,103.8418827,34
203,1 Cluny Road Singapore Botanic Gardens Singapore (259569),"Italian, Vegetarian Friendly, Pizza",Casa Verde,1.3138397,103.8159136,20
204,101 Siloso Road Dine On 3 at Level 3Shangri-La's Rasa Sentosa Resort & Spa Singapore (098970),"Indian, Southeast Asian",Casserole,1.2577323,103.8097962,40
205,"1 The Knolls Capella Hotel, Sentosa Singapore (098297)",Chinese,Cassia,1.2497222,103.8241667,14
206,12 Ann Siang Road Singapore (069692),"American, Bar",Catchfly,1.2813466,103.8454791,4
207,5 Gemmill Lane#01-01Singapore (069261),"Bar, Fusion, Seafood",Catfish,1.2824539,103.8472139,4
208,1 Jalan Dusun#01-10One Dusun Residences Singapore (329363),"Modern European, French, Steakhouse",Cavemen Restaurant & Bar,1.3270103,103.8438153,26
209,1 Magazine Road#01-01Central Mall Singapore (059567),"American, Bar, Fusion, Cafe",Central Perk (F.R.I.E.N.D.S Cafe),1.2884642,103.8420429,34
210,71 Loewen Road#01-01Singapore (248847),Korean,Chang Korean BBQ,1.3019405,103.8116485,20
211,103 Irrawaddy Road#01-05Royal Square@Novena Square Singapore (329566),"Bar, Japanese",Chao Chao Gyoza,1.3206799,103.843035,26
212,195 East Coast Road Singapore (428900),"Chinese, Steamboat",Chao Niu Hot Pot,1.3071625,103.9065279,23
213,232 Tanjong Katong Road Singapore (437020),"Bar, BBQ",ChaoTa,1.306873,103.895427,42
214,55 Tiong Bahru Road#01-37Singapore (160055),"Bar, Italian, Pizza",Chapter 55,1.2841889,103.8343848,0
215,363 Jalan Besar Singapore (208994),"Chinese, Local",Char,1.3126815,103.8595126,8
216,32 Boat Quay Singapore (049821),Spanish,Charlie's Restaurant & Bar,1.2861956,103.8498069,24
217,"333 Orchard Road Level 5,Mandarin Orchard Hotel Singapore Singapore (238867)","Chinese, Vegetarian Friendly, Local",Chatterbox,1.3022281,103.8360357,38
218,21 Boon Tat Street Singapore (069620),"Australian, Vegetarian Friendly",Cheek Bistro,1.2814005,103.8485518,4
219,61 Tras Street Singapore (079000),"Modern European, French, Fusion, Vegetarian Friendly",Chef's Table by Chef Stephan,1.2778263,103.8444436,31
220,6A Shenton Way#02-29Downtown Gallery Singapore (068815),Chinese,Chen's Mapo Tofu (Delivery),1.2780123,103.8491846,4
221,74 Amoy Street Singapore (069893),"Chinese, Fusion, Vegetarian Friendly, Zi Char",Chengdu 成都,1.2803451,103.84671,4
222,5 Raffles Avenue Marina Square The Mandarin Oriental Singapore (039797),"Chinese, Dim Sum",Cherry Garden,1.2908185,103.8582972,12
223,1 Equestrian Walk Singapore Turf Club Riding Centre Singapore (737863),"Seafood, Vegetarian Friendly, Cafe",Cheval Cafe Bar Bistro,1.4281561,103.7674694,19
224,2 Bukit Batok West Avenue 7#01-09B Hometeam NS Clubhouse Singapore (659003),Chinese,Cheval Chi Bao,1.365836,103.7497711,48
225,92 Amoy Street#01-01Singapore (069911),"Japanese, Fusion, Modern Asian",CHICHI,1.2812468,103.8471076,4
226,277C Compassvale Link Singapore (543277),Korean,Chicken Up (Buangkok),1.3823625,103.8940316,33
227,48 Tanjong Pagar Road#01-01Singapore (088469),Korean,Chicken Up (Tanjong Pagar),1.2792556,103.8437694,31
228,102 Amoy Street Singapore (069922),"Bar, International, Mexican",Chico Loco,1.2816162,103.8474079,4
229,1 Fusionopolis Place#02-03Galaxis Singapore (138522),Indian,CHILLAS Indian Restaurant,1.3004512,103.7871501,9
230,1 Marina Boulevard#01-01Singapore (018989),Mexican,Chimi's,1.2822004,103.8526513,49
231,36 Dunlop Street Singapore (209364),Mexican,Chimichanga,1.3048329,103.8539107,8
232,2 Bayfront Avenue B1-15The Shoppes at Marina Bay Sands Singapore (018972),"Modern European, Chinese, Fusion, Modern Asian",Chinoiserie,1.2788703,103.8570997,49
233,"Blk 4 Changi Village Road #01-2090,Singapore (500004)","Fusion, Cafe",Chock Full of Beans,1.388892,103.987688,7
234,18 Mosque Street Singapore (059498),"Buffet, Chinese, Seafood",Chong Qing Grilled Fish (Chinatown),1.2838539,103.844558,4
235,10 Dempsey Road#01-23Singapore (247700),"Chinese, International, Seafood, Vegetarian Friendly, Local, Dim Sum, Southeast Asian, Modern Asian",Chopsuey Cafe Dempsey,1.3033906,103.8104867,20
236,607 Bukit Timah Road#01-01Singapore (269708),"French, All-Day Breakfast, Cafe",Choupinette,1.324379,103.8094803,30
237,51 Telok Ayer Street#01-01Singapore (048441),Chinese,Chuan Hung,1.2829964,103.8491447,4
238,2 Tanjong Katong Road#01-09PLQ 3 Paya Lebar Quarter Singapore (437161),"Bar, Japanese, Korean",Chug Chug (PLQ),1.316081,103.8935549,42
239,114 Tanjong Pagar Road Singapore (088529),"Bar, Fusion, Burgers",Chug Chug Singapore,1.2779286,103.8435039,31
240,"190 Keng Lee Road #01-02,Chui Huay Lim Club Singapore (308409)","Chinese, Zi Char",Chui Huay Lim Teochew Cuisine,1.3137597,103.8415269,26
241,42 Mosque Street Singapore (059520),"Chinese, Seafood, Vegetarian Friendly",Chunqiu Restaurant,1.2839793,103.8446732,4
242,719 East Coast Road Singapore (459069),"Indian, Vegetarian Friendly, Cafe",Chutney Mary (East Coast),1.3122748,103.9228582,6
243,Block 31 Tampines Avenue 1Level 3Temasek Culinary Academy Temasek Polytechnic Singapore (529757),"American, French, International",CIA ToP Table,1.3451847,103.9318122,15
244,428 River Valley Road Singapore (248327),"Bar, Italian, Vegetarian Friendly",Cibo Italiano,1.2945058,103.8276315,0
245,3 River Valley Road #01-10 Clarke Quay Block C Singapore (179022),"Fusion, Local, Cafe",Cicada Singapore,1.2906024,103.8464742,24
246,100 Peck Seah Street#01-02Oasia Hotel Downtown Singapore (079333),"Bar, Vegetarian Friendly",CIN CIN,1.275835,103.8442824,31
247,57 Anchorvale Road#01-01Sengkang Sports Centre Singapore (544964),"Fusion, Halal Certified, Cafe",Citrus Bistro,1.3964799,103.8868403,41
248,3 Woodlands Street 13#3-3A Woodlands Swimming Complex Singapore (738600),"Fusion, Halal Certified, Cafe",Citrus By The Pool,1.434622,103.779376,19
249,7 Wallich Street#B1-04/05Guocco Tower Singapore (078884),"Chinese, Seafood, Local, Steamboat",City Hot Pot Shabu Shabu (Guoco Tower),1.2770512,103.8455475,31
250,1 Raffles Place#04-26/27/28One Raffles Place Singapore (048616),"Chinese, Vegetarian Friendly, Local, Steamboat",City Hot Pot Shabu Shabu (Raffles Place),1.284177,103.851063,49
251,31 Bukit Pasoh Road Singapore (089845),Cafe,Clan Cafe,1.279295,103.840375,31
252,2 Bukit Manis Road Sofitel Singapore Sentosa Resort & Spa Singapore (099891),"Italian, Vegetarian Friendly",the Cliff (Sofitel Sentosa),1.2456916,103.8278754,14
253,80 Collyer Quay Lobby Level The Fullerton Bay Hotel Singapore (049326),"Chinese, Malaysian, Local",The Clifford Pier,1.2832383,103.8536272,49
254,31 Purvis Street Singapore (188608),"American, All-Day Breakfast, Cafe",Clinton Street Baking Company,1.2963027,103.855095,16
255,84 Amoy Street Singapore (069903),"Australian, Vegetarian Friendly",Cloudstreet,1.2807673,103.8469772,4
256,2 Stamford Road Level 2Swissotel The Stamford Singapore (178882),"American, Bar, Modern European, Fusion, International, Vegetarian Friendly, Cafe, Burgers, Vegetarian, Dessert Only",Clove,1.2932771,103.8535076,16
257,50 Siloso Beach Walk#01-06Singapore (099000),"Bar, Seafood",Coastes,1.252495,103.816038,14
258,5 Stadium Walk#02-01Singapore (397693),"Buffet, Chinese, Thai, Seafood, Local, Steamboat",COCA at Kallang Leisure Park,1.3021918,103.876502,37
259,3 Temasek Boulevard#02-440Suntec City Mall Singapore (038983),"Buffet, Chinese, Thai, Local, Steamboat",COCA at Suntec,1.2953376,103.8581418,12
260,"391B Orchard Road #04-23,Ngee Ann City Singapore (238874)","Buffet, Chinese, Thai, Seafood, Local, Steamboat",COCA at Takashimaya,1.3025572,103.834568,11
261,1 Unity Street Level 2Park Hotel Clarke Quay Singapore (237983),"Bar, Buffet, International, Local",Cocobolo Poolside Bar + Grill,1.2914332,103.8423842,34
262,28 Ann Siang Road Singapore (069708),"Malaysian, Local, Southeast Asian",The Coconut Club,1.2807255,103.8457872,4
263,252 North Bridge Road#B1-12Raffles City Shopping Centre Singapore (179103),"All-Day Breakfast, Cafe, Pizza, Burgers",The Coffee Academics (Raffles City),1.2936888,103.8539365,16
264,6 Scotts Road#02-01/#02-02Scotts Square Singapore (228209),"All-Day Breakfast, Cafe, Burgers",The Coffee Academics (Scotts Square),1.3058788,103.8329554,11
265,5 Coleman Street5F Peninsula Excelsior Hotel Singapore (179805),"Buffet, International, Local, Cafe",Coleman's Cafe,1.2921301,103.8499727,24
266,6 Raffles Boulevard#01-204/205Marina Square Singapore (039594),Steakhouse,COLLIN’S®️ (Marina Square),1.2914837,103.8581984,12
267,290 Orchard Road#B1-43Paragon Shopping Centre Singapore (238859),"Malaysian, Local",Colonial Club Signatures,1.3038699,103.8357982,11
268,Level 37 Raffles Avenue Singapore (039799),"Buffet, Chinese, Japanese, Indian, Indonesian, Malaysian, International, Seafood, British, Vegetarian Friendly, Local, Dim Sum, Southeast Asian","Colony (The Ritz-Carlton, Millenia Singapore)",1.2894584,103.862269,12
269,220 Upper Thomson Road Singapore (574352),"All-Day Breakfast, Cafe",Columbus Coffee Co.,1.3529,103.8354207,32
270,404 East Coast Road Singapore (428998),Mexican,Comida Mexicana,1.308853,103.912105,23
271,11/12 Stanley Street Singapore (068730),"Australian, All-Day Breakfast, Vegetarian Friendly, Cafe",Common Man Stan,1.280279,103.847971,4
272,60 Prinsep Street Singapore (188664),"All-Day Breakfast, Cafe",Communal Coffee,1.2996497,103.8499654,45
273,465 Joo Chiat Road Singapore (427677),"American, Australian, Fusion, International, All-Day Breakfast, British, Cafe, Burgers",The Communal Place,1.3067012,103.9047474,23
274,18A Dempsey Road Singapore (249677),"Modern European, International, Vegetarian Friendly, Cafe",Como Cuisine,1.3058407,103.8105749,20
275,2 Temasek Boulevard Conrad Centennial Hotel Singapore (038982),Bar,Conrad Lobby Lounge,1.2932404,103.8587623,12
276,12 Marina View Level 33The Westin Singapore Asia Square Tower 2Singapore (018961),"Bar, Modern European, Fusion, Vegetarian Friendly, Modern Asian",Cook & Brew,1.2782749,103.8507719,4
277,32 Beach Road Singapore (189764),Bar,Cool Cats,1.2943478,103.855289,16
278,42 Hong Kong Street Singapore (059681),"Bar, Japanese, French, Italian, Pizza",The Cooperage,1.2872702,103.8476184,24
279,167 Penang Road#01-01 Winsland House Singapore (238462),"Japanese, Fusion, Modern Asian",Copper,1.299853,103.840569,38
280,12 Marina Boulevard#02-01Marina Bay Financial Centre Tower 3Singapore (018982),"Indian, Vegetarian Friendly, Halal Certified",Copper Chimney (Marina Bay Financial Center),1.2790221,103.8544967,49
281,100 Syed Alwi Road Singapore (207676),"Indian, Vegetarian Friendly",Copper Chimney (Syed Alwi),1.3098902,103.8552856,8
282,6 Kim Tian Road Singapore (169246),Bar,Coq & Balls,1.285135,103.829264,0
283,12 Ann Siang Road Singapore (069692),Modern Asian,Coriander Leaf @ Ann Siang,1.2813466,103.8454791,4
284,30 Victoria Street#02-01CHIJMES Singapore (187996),International,Coriander Leaf @ CHIJMES,1.294726,103.852524,16
285,1 Cluny Road Singapore Botanic Gardens EJH Corner House(Nassim Gate Entrance)Singapore (259569),"Bar, Modern European, French, Vegetarian Friendly",Corner House,1.3138397,103.8159136,20
286,9 Craig Road#01-01Singapore (089669),"Bar, Modern European",Coucou,1.2776039,103.842797,31
287,1 Fullerton Square The Fullerton Hotel Singapore Singapore (049178),"Bar, Japanese, Indian, International",The Courtyard,1.2863532,103.8530671,49
288,3B River Valley Road#01-08Singapore (179021),"American, Local, Pizza, Burgers",Coyote Ugly Saloon,1.2958759,103.8397086,38
289,35A Boat Quay Singapore (049824),"American, Italian, Pizza",Craft Pizza,1.2863031,103.8496754,24
290,55 Waterloo Street#01-01Catholic Centre Building Singapore (187954),"All-Day Breakfast, Cafe, Burgers",Crossings Cafe,1.2983144,103.8514777,45
291,1 Harbourfront Walk#01-112Vivo City Singapore (098585),"Chinese, Vegetarian Friendly",Crystal Jade Dining IN,1.2644032,103.8222071,40
292,290 Orchard Road#05-22The Paragon Singapore (238859),Chinese,Crystal Jade Golden Palace,1.3038699,103.8357982,11
293,1 Woodlands Square#05-10Causeway Point Singapore (738099),Chinese,Crystal Jade Hong Kong Kitchen (Causeway Point),1.4360933,103.7859471,19
294,1 Kim Seng Promenade#03-127Great World City Singapore (237994),Chinese,Crystal Jade Hong Kong Kitchen (Great World City),1.2936417,103.8319293,0
295,2 Lorong Mambong Holland Village Singapore (277671),Chinese,Crystal Jade Hong Kong Kitchen (Holland Village),1.3109931,103.7953414,9
296,3 Temasek Boulevard#B1-112Suntec City Mall Singapore (038983),Chinese,Crystal Jade Hong Kong Kitchen (Suntec City),1.29503,103.8583026,12
297,391 Orchard Road#B2-38Takashimaya Shopping Centre Singapore (238872),Chinese,Crystal Jade Hong Kong Kitchen (Takashimaya),1.3025572,103.834568,11
298,4 Tampines Central 5#B1-11Tampines Mall Singapore (529510),Chinese,Crystal Jade Hong Kong Kitchen (Tampines Mall),1.3524936,103.9447179,15
299,3155 Commonwealth Avenue West#03-54The Clementi Mall Singapore (129588),Chinese,Crystal Jade Hong Kong Kitchen (The Clementi Mall),1.314918,103.7643089,22
300,3 Gateway Drive#04-42Westgate Mall Singapore (608532),Chinese,Crystal Jade Hong Kong Kitchen (Westgate),1.3345013,103.7426077,3
301,1 Harbourfront Walk#01-52Vivo City Singapore (098585),Chinese,Crystal Jade Jiang Nan (VivoCity),1.2644032,103.8222071,40
302,200 Victoria Street#B1-04A Bugis Junction Singapore (188021),Chinese,Crystal Jade La Mian Xiao Long Bao (Bugis),1.2988889,103.8555556,16
303,241 Holland Avenue Singapore (278976),Chinese,Crystal Jade La Mian Xiao Long Bao (Holland Village),1.3109916,103.795613,9
304,1 Jurong West Central 2#03-96Jurong Point JP2Singapore (648886),Chinese,Crystal Jade La Mian Xiao Long Bao (Jurong Point),1.3397443,103.7067297,28
305,391 Orchard Road#B2-36A Takashimaya Shopping Centre Singapore (238872),"Chinese, Dim Sum",Crystal Jade La Mian Xiao Long Bao (Takashimaya),1.3021233,103.8346725,11
306,470 Toa Payoh Lorong 6#01-70HDB Hub Singapore (310470),Chinese,Crystal Jade La Mian Xiao Long Bao (Toa Payoh),1.3320803,103.8493781,26
307,391 Orchard Road#04-19Takashimaya Shopping Center Singapore (238872),Chinese,Crystal Jade Palace,1.3025572,103.834568,11
308,75 Airport Boulevard#01-02Crowne Plaza Changi Airport Changi Airport Terminal 3Singapore (819664),Chinese,Crystal Jade Pavilion (Crowne Plaza T3),1.3585609,103.9879672,21
309,3B River Valley Road#01-13Singapore (179021),"Bar, Spanish, South American, Vegetarian Friendly, Caribbean, Mexican, Cuban",Cuba Libre Cafe & Bar (Clarke Quay),1.2958741,103.839689,38
310,182 Cecil Street#01-06/07Frasers Tower Singapore (069547),"Bar, Spanish, South American, Cafe",Cuba Libre Cafe & Bar (Frasers Tower),1.2786632,103.8474008,4
311,12 Kallang Avenue#02-10Aperia Mall Singapore (339511),"Fusion, Halal Certified",Cucina Restaurant & Catering,1.3100591,103.8643756,8
312,11 Unity Street#01-23/24Robertson Walk Singapore (237995),"Buffet, Italian, International",CulinaryOn (Weekend Brunch),1.2919896,103.8416883,34
313,26 Sentosa Gateway#01-231/232Resorts World Sentosa Singapore (098138),German,CURATE,1.255179,103.8218107,14
314,21 Keong Saik Road Singapore (089128),"Modern European, Vegetarian Friendly",Cure Singapore,1.279762,103.8413406,31
315,30 Race Course Lane#01-02/03Singapore (218745),"Indian, Vegetarian Friendly",Curry Bowl,1.3102355,103.8525577,8
316,21 Biopolis Road#01-05Nucleos Singapore (138567),Indian,Curry Nations,1.3018443,103.792238,9
317,1 Bayfront Avenue Level 57Tower 3Marina Bay Sands Sky Park Singapore (018971),Modern Asian,CÉ LA VI,1.2829764,103.8604745,49
318,21 Tanjong Pagar Road#01-01Singapore (088444),Italian,d.o.c,1.2796469,103.8441903,31
319,181 Orchard Road#08-08Orchard Central Singapore (238896),"Chinese, Steamboat",Da Long Yi Hot Pot,1.3006295,103.8398742,38
320,8 Dempsey Road#01-13Singapore (247696),"Bar, Modern European, Italian, Vegetarian Friendly, Pizza",Da Paolo Dempsey Restaurant & Bar,1.3042251,103.8095057,20
321,44 Jalan Merah Saga Singapore (278116),"Bar, Italian, Pizza",Da Paolo Pizza Bar,1.3116259,103.796677,9
322,131 Rifle Range Road#01-01Temasek Club Singapore (588406),"Malaysian, Southeast Asian, Peranakan, Cafe",Daisy's Dream Kitchen,1.34646,103.7806885,17
323,31 Boat Quay Singapore (049820),"American, Mexican, Burgers",Dallas Restaurant & Bar (Boat Quay),1.2861288,103.8497773,24
324,91 Tanglin Road#B1-01Tanglin Place Singapore (247918),"American, Bar, Burgers",Dan Ryan's Chicago Grill,1.3053098,103.8250961,44
325,181 Orchard Road#07-14/15Orchard Central Singapore (238896),"American, Seafood, Cajun",Dancing Crab (Orchard Central),1.300798,103.839175,38
326,1 Harbourfront Walk#03-10Vivo City Singapore (098585),"American, Seafood, Cajun",Dancing Crab (Vivocity),1.2635459,103.8212252,40
327,12 Mosque Street#01-01Singapore (059492),"Bar, Chinese, BBQ",Dating Fish 鱼你有约“音乐主题餐厅,1.2839493,103.8443897,4
328,2 Bayfront Avenue#B1-48The Shoppes at Marina Bay Sands Singapore (018972),"French, Seafood",db Bistro & Oyster Bar,1.2788703,103.8570997,49
329,1187 Upper Serangoon Road#01-17The Midtown Singapore (533971),Cafe,De Dimension,1.3704775,103.8954832,33
330,60 Robertson Quay#01-17The Quayside Singapore (238252),"American, BBQ",Decker Barbecue,1.2900111,103.8388802,34
331,1 Hoe Chiang Road Singapore (089310),"Indian, Vegetarian Friendly",Delhi Express Restaurant,1.2740918,103.8426845,31
332,64 Race Course Road Singapore (218569),"Bar, Indian, Vegetarian Friendly",Delhi Restaurant,1.3085468,103.8512009,8
333,51 Bussorah Street Singapore (199467),"Middle Eastern, Vegetarian",Deli Moroccan,1.301866,103.859383,8
334,91 Bencoolen Street#01-54Sunshine Plaza Singapore (189652),"Japanese, Fusion, Steakhouse, Cafe",Deli's Kitchen,1.3005314,103.8508826,45
335,17D Dempsey Road Singapore (249676),"French, Pizza",The Dempsey Cookhouse and Bar,1.30577,103.8101698,20
336,48 Prinsep Street#01-01Singapore (188677),"Bar, German",Der Biergarten,1.2996611,103.8497482,45
337,60 Bussorah Street Singapore (199476),"Middle Eastern, Vegetarian Friendly",Derwish Turkish,1.301396,103.859492,8
338,1 The Oval Singapore (797859),"Chinese, Seafood, Zi Char",Di Wei Teochew Restaurant,1.4073864,103.8679714,25
339,"311 New Upper Changi Road#01-73/74, Bedok Mall Singapore (467360)",Chinese,Dian Xiao Er (Bedok Mall),1.3244894,103.92902,46
340,17 Petir Road#01-08/09/10Hillion Mall Singapore (678278),"Chinese, Local",Dian Xiao Er (Hillion Mall),1.3785171,103.7632971,13
341,50 Jurong Gateway Road#03-08JEM Singapore (608549),"Chinese, Local",Dian Xiao Er (JEM),1.3337765,103.7436699,3
342,78 Airport Boulevard#B2-229Jewel Changi Airport Singapore (819666),"Chinese, Local, Modern Asian",Dian Xiao Er (Jewel),1.3602082,103.9897593,21
343,"9 Bishan Place#B1-07, Junction 8Singapore (579837)",Chinese,Dian Xiao Er (Junction 8),1.3506808,103.8487631,10
344,63 Jurong West Central 3#B1-57Jurong Point Singapore (648331),"Chinese, Local",Dian Xiao Er (Jurong Point),1.3392697,103.7051807,28
345,"21 Choa Chu Kang Avenue 4#B1-32/33, Lot One Singapore (689812)",Chinese,Dian Xiao Er (Lot One),1.3851169,103.7449142,13
346,6 Raffles Boulevard Marina Square#02-203/204Singapore (039594),"Chinese, Local",Dian Xiao Er (Marina Square),1.2911534,103.8576778,12
347,23 Serangoon Central#02-09/10NEX Singapore (556083),"Chinese, Local",Dian Xiao Er (NEX),1.3507723,103.8722585,36
348,930 Yishun avenue 2#02-06Northpoint City North Wing Singapore (769098),"Chinese, Vegetarian Friendly",Dian Xiao Er (Northpoint City),1.4279686,103.8364152,5
349,10 Tampines Central 1#04-15Tampines One Singapore (529536),"Chinese, Local",Dian Xiao Er (Tampines One),1.354212,103.9450352,15
350,1 Harbourfront Walk#02-138/9Vivo City Singapore (098585),"Chinese, Local",Dian Xiao Er (VivoCity),1.2644032,103.8222071,40
351,83 Punggol Central#01-30Waterway Point Singapore (828761),"Chinese, Local",Dian Xiao Er (Waterway Point),1.40669,103.9021738,1
352,791 North Bridge Road Singapore (198759),"Chinese, Local, Dim Sum",The Dim Sum Place,1.3040147,103.8601468,8
353,39 Scotts Road Sheraton Towers Singapore (228230),International,The Dining Room,1.3118244,103.8364761,11
354,"3 Temasek Boulevard #01-514/515,Suntec City Mall Singapore (038983)","Bar, Modern European, Steakhouse",District 10 (Suntec City),1.2955494,103.8591196,12
355,"81 Clemenceau Avenue #01-15/16/17,UE Square Singapore (239917)",Modern European,District 10 (UE Square),1.2920433,103.8427205,34
356,5 Raffles Avenue Marina Square The Mandarin Oriental Singapore (039797),Italian,Dolce Vita,1.2908185,103.8582972,12
357,1 Keong Saik Road The Working Capitol Building Singapore (089109),"Fusion, International, Middle Eastern",Don Ho - Social Kitchen & Bar,1.2788038,103.8414996,31
358,1 Fusionopolis Place #01-11Galaxis Singapore (138522),"Bar, Pizza",Donna Restaurant and Bar,1.3004512,103.7871501,9
359,2 Circular Road Singapore (049358),"Chinese, Modern Asian",The Dragon Chamber,1.2880248,103.8488534,24
360,81 Club Street Singapore (069449),"Bar, Vegetarian Friendly, Pizza, Burgers",Drinks & Co Grill,1.2818634,103.8458084,4
361,27 Lorong Mambong Singapore (277686),"Modern European, Vegetarian Friendly, Pizza",Drinks & Co Kitchen,1.3115319,103.7945621,9
362,48 Arab Street Singapore (199745),"Fusion, Local, Cafe",Dual,1.300805,103.8596349,8
363,10 Paya Lebar Road B2-33Paya Lebar Quarter Singapore (409057),Fusion,Duckland (Paya Lebar),1.316608,103.8924804,42
364,26 Sentosa Gateway#B1-222 / 223Resorts World Sentosa Singapore,"Local, Modern Asian",Duckland (Resorts World Sentosa),1.2565321,103.8202397,14
365,101 Thomson Road B1-09&64/65United Square Shopping Mall Singapore (307591),"Fusion, Cafe, Modern Asian",Duckland (United Square),1.3173196,103.8438405,26
366,109 Mount Faber Road Singapore (099203),"Bar, Modern European, Spanish",Dusk Restaurant & Bar,1.2713774,103.8192945,40
367,9 King Albert Park#01-14/33/34/56/57KAP Residences Mall Singapore (598332),International,EagleWings Loft,1.3370926,103.7794196,17
368,1000 East Coast Parkway#01-03Singapore (449876),Cafe,East Coast Commune,1.301317,103.9129037,23
369,"3 River Valley Road#01-16Clarke Quay, Block B Singapore (179021)",Chinese,East Treasure Chinese Restaurant,1.2910625,103.8456521,24
370,12 Alexandra View#01-02/03/04Singapore (158736),"Bar, Modern European, German, Cafe, BBQ, Russian, Vegetarian",Eat Cetera,1.2900367,103.8169318,27
371,1 Stadium Place#01-35Kallang Wave Mall Singapore (397628),Chinese,Eat@Taipei (Kallang Wave Mall),1.3032243,103.8728714,37
372,60 Paya Lebar Road#B1-15Paya Lebar Square Singapore (409051),"Steakhouse, Halal Certified",Eatzi Gourmet Bistro (Paya Lebar Square),1.3191725,103.8925563,42
373,60 Yishun Ave 4#01-V2SAFRA Yishun Singapore (769027),"Steakhouse, Halal Certified",Eatzi Gourmet Bistro (SAFRA Yishun),1.4245235,103.8408313,5
374,7 Raffles Boulevard Level 3Pan Pacific Singapore Singapore (039595),"Buffet, International, Seafood, Local, Peranakan",Edge,1.2924176,103.8585852,12
375,282A South Bridge Road Singapore (058831),"Chinese, Malaysian, Local, Vegetarian",Eight Treasures Vegetarian Restaurant,1.2815386,103.8447177,4
376,30 Victoria Street#01-20CHIJMES Singapore (187996),"Bar, Seafood, Steakhouse, South American, Vegetarian Friendly, Mexican",El Mero Mero,1.2949166,103.8524109,16
377,13 Stamford Road Arcade @ The Capitol Kempinski Singapore (178906),Spanish,El Teatro Tapas,1.293891,103.8513613,16
378,83 Club Street Singapore (069451),"Bar, Vegetarian Friendly, Pizza, Burgers",Elbow Room by Drinks & Co,1.2817521,103.8457289,4
379,1 Maritime Square#02-85Harbour Front Centre Singapore (099255),"Chinese, Vegetarian Friendly",Elemen @ HarbourFront Centre,1.2643389,103.8201453,40
380,9 Raffles Boulevard Millenia Walk Singapore (039596),"Chinese, Vegetarian Friendly",Elemen @ Millenia Walk,1.2928181,103.8598344,12
381,10 Paya Lebar Road#03-13Paya Lebar Quarter Singapore (409057),Vegetarian,Elemen @ Paya Lebar Quarter,1.316608,103.8924804,42
382,165 Tanjong Pagar Road#01-00Amara Hotel Singapore (088539),"International, Seafood",Element Restaurant,1.2747537,103.8435337,31
383,112 Amoy Street Singapore (069932),"American, Bar",Employees Only Singapore,1.2820529,103.8476758,4
384,1 Empress Place#01-03Asian Civilisations Museum Singapore (179555),"Chinese, Dim Sum",EMPRESS,1.2873802,103.8512492,24
385,70 Jellicoe Road#04-01Singapore (208767),"Fusion, International, Burgers",Enchanted Garden,1.3077922,103.8625335,8
386,28 Mohamed Sultan Road Singapore (238972),British,The English House by Marco Pierre White,1.2931036,103.8413303,34
387,383 Jalan Besar Road Kam Leng Hotel Singapore (209001),"Chinese, Local, Peranakan, Zi Char",Enjoy Eating House and Bar @ Jalan Besar,1.3131786,103.8596715,8
388,30 Stevens Road#01-07Mercure on Stevens Singapore (257840),"Bar, Local, Zi Char",Enjoy Eating House and Bar @ Stevens,1.3137963,103.8287675,44
389,47 Neil Road Singapore (028887),"Fusion, Southeast Asian, Modern Asian",Epiphyte,1.279713,103.84271,31
390,8A Marina Boulevard#01-01Ground Plaza Singapore (018984),"Bar, Italian, Seafood, Vegetarian Friendly, Cafe",Erwin's Gastrobar,1.2797178,103.8544526,49
391,1 Farrer Park Station Rd Singapore (217562),"American, Bar",ESCAPE,1.3127619,103.8545562,8
392,16 Jiak Chuan Road Singapore (089267),"Modern European, Spanish",Esquina,1.2798722,103.8420751,31
393,49/50 Duxton Road Singapore (089513),"Italian, Vegetarian Friendly, Pizza",Etna Italian Restaurant (Duxton),1.2783225,103.8433345,31
394,110 Upper East Coast Road Singapore (455298),"Italian, Vegetarian Friendly, Pizza",Etna Italian Restaurant (Upp East Coast),1.31329,103.928821,6
395,76 Tras Street Singapore (079015),"Modern European, French",Euphoria,1.2774708,103.8441306,31
396,8 Marina View#01-04Asia Square Singapore (018960),"Bar, Italian, Pizza",Extra Virgin Pizza (Asia Square),1.2792279,103.8513981,49
397,54 Sembawang Road Singapore (779085),"Chinese, Southeast Asian",Famous Kitchen,1.4027461,103.8181274,39
398,13 Stamford Road#02-28Capitol Singapore Singapore (178905),"Chinese, Local",Famous Treasure,1.2931642,103.8511386,16
399,24 Greenwood Avenue Singapore (289221),"Thai, French",Farangse,1.3314723,103.8066564,30
400,1 Orchard Blvd#01-01Camden Medical Centre Singapore (248649),"Bar, Japanese, Steakhouse",Fat Cow,1.3031723,103.823822,44
401,48 Peck Seah Street Singapore (079317),"Middle Eastern, Vegetarian Friendly, Turkish",Fat Prince,1.2779306,103.844885,31
402,29 Lorong Mambong Holland Road Singapore (277689),"American, Burgers",Fatboy's The Burger Bar (Holland Village),1.312156,103.7941994,9
403,922 Yishun Ave 2#01-150Northpoint Singapore (769095),"American, Burgers",FATBOY'S The Burger Bar (Northpoint),1.4277137,103.8367706,5
404,26 Sentosa Gateway#B1M-125/126/127Resorts World Sentosa Singapore (098138),"Chinese, Dim Sum",Feng Shui Inn,1.255179,103.8218107,14
405,23 Lorong Mambong Singapore (277682),"Bar, International, Vegetarian Friendly",The Fine Line,1.3114454,103.7946057,9
406,2 Orchard Turn#55-01 ION Orchard Singapore (238801),"Bar, South American, BBQ",FIRE @ 1-ATICO,1.3039288,103.8319512,11
407,32 Beach Road The NCO Club Singapore (189764),"Bar, French, Seafood",Fish Pool,1.2940932,103.8550067,16
408,97 Hougang Avenue 8Punggol Park Singapore (538792),"Bar, Modern Asian",Five &2,1.3750035,103.8983496,33
409,39 Tanjong Pagar Road Singapore (088462),"Fusion, Cafe",Five Oars Coffee Roasters,1.2790527,103.8439926,31
410,73 Upper Paya Lebar Road Level 1Centro Bianco Building Singapore (534818),"Seafood, Halal Certified, Steamboat",Flame Cafe,1.3367901,103.8871511,2
411,64 Tras Street Singapore (079003),"French, Vegetarian Friendly",Fleur de Sel Le Restaurant,1.277807,103.8441943,31
412,2 Orchard Turn#55-01 ION Orchard Singapore (238801),"Bar, South American, BBQ",FLNT @ 1-ATICO,1.3039288,103.8319512,11
413,93 Stamford Road#01-02The National Museum of Singapore Singapore (178897),Modern European,FLUTES Restaurant,1.2966147,103.8485095,45
414,67 Bussorah Street Singapore (199480),"Indian, Vegetarian Friendly",Flying Monkey,1.300837,103.860084,8
415,310 Lavender Street Singapore (338815),"Chinese, Fusion, Vegetarian Friendly, Local, Vegetarian",Fo You Yuan Vegetarian Restaurant 佛有缘素食馆,1.3153248,103.8596181,8
416,40 Hong Kong Street Singapore (059679),Spanish,FOC Restaurant,1.2873338,103.8475084,24
417,110 Tanjong Beach Walk Singapore (098943),Spanish,FOC Sentosa - Restaurant,1.2467881,103.8249765,14
418,700 Beach Road Level 2Destination Singapore Beach Road Singapore (199598),"Malaysian, Fusion, Local, Southeast Asian, Peranakan, Modern Asian",Folklore,1.302438,103.864109,8
419,8 Shenton Way01-15/18/23AXA Tower Singapore (068811),Thai,Folks Collective - The Eclectic Emporium (AXA Tower),1.2761294,103.8474403,31
420,20 Cross Street#01-25China Square Central Singapore (048422),Thai,Folks Collective - The Vintage Shope (China Square),1.2839206,103.8475743,4
421,392 Havelock Road Grand Copthorne Waterfront Hotel Singapore (169663),"American, Buffet, Chinese, Japanese, Indian, International, Seafood, Local, Southeast Asian",Food Capital,1.2900873,103.8353025,0
422,28 Stevens Road Novotel Singapore on Stevens Singapore (257878),"Indian, Thai, International, Seafood, Vegetarian Friendly, Local, Southeast Asian",Food Exchange,1.3137963,103.8287675,44
423,111 Killiney Road Singapore (239553),Chinese,FOOK KIN,1.2980251,103.838852,38
424,16 Sentosa Gateway#01-521/522Resorts Word Sentosa Singapore (098133),Chinese,Forest 森,1.255179,103.8218107,14
425,200 Turf Club Road#01-16The Grandstand Singapore (287994),"Bar, Fusion",Foresta Restaurant & Bar,1.3380084,103.7934418,17
426,11 Bussorah Street Singapore (199432),"Chinese, Fusion, Local, Southeast Asian",The Fortune Cookie,1.3011547,103.8602386,8
427,"382 Havelock Road Four Points by Sheraton Singapore, Riverview Singapore (169629)","Buffet, International, Seafood, Local",Four Points Eatery,1.289185,103.8366479,0
428,78 Airport Boulevard#B2-227/228Jewel Changi Airport Singapore (819666),"Chinese, Fusion, Seafood, Vegetarian Friendly, Local, Steamboat, Zi Char",Four Seasons Restaurant,1.3602082,103.9897593,21
429,26 Sentosa Gateway#02-145Resorts World Sentosa Singapore (098138),"Italian, Pizza",Fratelli,1.255179,103.8218107,14
430,26 Sentosa Gateway#02-144Resorts World Sentosa Singapore (098138),Italian,Fratelli Trattoria,1.255179,103.8218107,14
431,21A Boon Tat Street Singapore (069620),"Bar, Fusion, Vegetarian Friendly",Freehouse,1.281301,103.848486,4
432,3E River Valley Road#01-05Singapore (179024),"Australian, Seafood, Southeast Asian",Fremantle Seafood Market,1.295877,103.8397203,38
433,2 Teck Lim Road Singapore (088380),"Bar, French",Frenchie Wine Bar,1.2801796,103.8420826,31
434,15 Stamford Road Arcade @ The Capitol Kempinski Singapore (178906),German,Frieda (The Capitol Kempinski Hotel Singapore),1.293891,103.8513613,16
435,431 Sembawang Road#01-11Singapore (758396),"Bar, Buffet, Korean, BBQ",Friends Tasty Korea,1.4280836,103.8265395,5
436,5 Mosque Street Singapore (059485),"Chinese, Steamboat",Frog Meat Fish Head 美蛙鱼头,1.284032,103.844054,4
437,127 Telok Ayer Street Singapore (068596),"Chinese, Spanish, Local",Fu Lin Bar & Kitchen,1.2811178,103.8479356,4
438,438B Alexandra Road01-01Alexandra Technopark Block B Singapore (119968),"American, Bar, Spanish",Fuego Bar & Kitchen,1.277416,103.7994388,27
439,51 Jalan Sultan Singapore (198975),"Bar, Japanese, BBQ",Fukusen Izakaya,1.3024337,103.8615408,8
440,243 Holland Avenue Singapore (278977),"Bar, Chinese, Fusion",Full of Luck Restaurant,1.311079,103.795575,9
441,"19 Boon Tat Street,Singapore (069619)","Modern European, Steakhouse",fȳr,1.2813737,103.8484499,4
442,163 Geylang Road Singapore (389240),"Chinese, Seafood, Zi Char",G7 Sin Ma Live Seafood and Frog Porridge,1.3115711,103.8745506,37
443,3B River Valley Road#01-14Singapore (179021),"Bar, Indian, Vegetarian Friendly",Gabbar Bistro & Bar,1.2958738,103.8396851,38
444,16 Stanley Street Singapore (068735),Spanish,Gaig,1.280476,103.84807,4
445,1 St Andrew's Road #01/12/13/14 & 17City Hall Wing National Gallery Singapore Singapore (178957),Cafe,The Gallery Bistro,1.2902217,103.8515167,24
446,10 Raeburn Park#01-28Singapore (088702),"American, Japanese, British",The Garden Kitchen,1.2740256,103.8334078,31
447,30 Allanbrooke Road Singapore (099983),"International, Vegetarian Friendly",The Garden,1.2479722,103.8274872,14
448,36 Purvis Street#01-02Singapore (188613),Italian,Garibaldi Italian Restaurant & Bar,1.2964499,103.8549138,16
449,25 Keong Saik Road Singapore (089132),French,Gaston,1.279837,103.84145,31
450,34/36 Tras Street Singapore (078975),"Italian, Seafood",Gattopardo Ristorante di Mare,1.2784339,103.8443601,31
451,165 Telok Ayer Singapore (068617),Modern European,GaZette,1.2802071,103.847481,4
452,10 Ann Siang Hill Singapore (069789),"Local, Southeast Asian, Burgers",Gem Bar,1.2813581,103.8454135,4
453,7-13 Amoy Street#01-01Far East Square Singapore (049949),"Cafe, Pizza, Burgers",Genius Central Singapore,1.282888,103.848436,4
454,81 Boat Quay Singapore (049869),"Bar, Chinese, Local",George Town Tze Char & Craft Beer,1.2884155,103.8492835,24
455,133 Pasir Ris Road Carpark E Singapore (519149),"American, Bar, Seafood, Vegetarian Friendly, Local, Cafe",Georges @ The Cove,1.3843563,103.9426012,47
456,1010 East Coast Parkway Carpark C3Singapore (449892),"American, Bar, Seafood, Vegetarian Friendly, Cafe",Georges Beach Club,1.3014279,103.9148718,23
457,500 New Punggol Road#02-12Singapore (828617),"American, Bar, Seafood",Georges By The Bay,1.4208268,103.9123599,1
458,18/20 Bukit Pasoh Road Singapore (089832),"Bar, Seafood",Gibson,1.279116,103.8409437,31
459,1 Raffles Place#04-29One Raffles Place Singapore (048616),"Thai, Fusion, Local",Gin Khao (One Raffles Place),1.284177,103.851063,49
460,1/A Tampines Street 92#01-K2Singapore (528882),"Chinese, Thai",Gin Khao (SAFRA Tampines),1.3446019,103.9416649,15
461,"31 Ocean Way,#01-12Quayside Isle Singapore (098375)",Thai,Gin Khao Bistro (Sentosa Cove),1.2476808,103.8420723,29
462,200 Middle Road Singapore (188980),"Bar, French, Cafe",Ginett Restaurant & Wine Bar,1.3008771,103.8515427,45
463,7500 Beach Road PARKROYAL on Beach Road Singapore (199591),"Buffet, International, Local, Southeast Asian",Ginger,1.3001787,103.8604032,8
464,No.5 Mohamed Sultan Road#01-01Singapore (239014),Japanese,Ginza Shinto,1.2939596,103.8419325,34
465,107 North Bridge Road#04-07Funan Mall Singapore (179105),"Fusion, Peranakan, Modern Asian",Godmama,1.291321,103.8500832,24
466,33 Mohamed Sultan Road#01-01/02Singapore (238977),Japanese,Goku Japanese Restaurant,1.2923785,103.8408052,34
467,2 Temasek Boulevard Conrad Centennial Hotel Singapore (038982),Chinese,Golden Peony,1.2932404,103.8587623,12
468,86 East Coast Road#01-02Katong Square Singapore (428788),"Chinese, Local, Vegetarian",Goldleaf Restaurant (Katong),1.3047255,103.9046894,23
469,7 Fraser Street#01-59/60Duo Galleria Singapore (189356),"Bar, Modern European, Fusion, International, Steakhouse, Pizza",The Gong by Drinks&Co.,1.2992641,103.8579913,16
470,5 Bishan Street 14#03-01Bishan Sports Hall Singapore (579783),"American, Fusion, Vegetarian Friendly, Cafe",Good Bites,1.3552778,103.8508333,10
471,889 East Coast Road Singapore (459092),"Local, Peranakan",Good Time Eat Drink,1.312892,103.9239769,6
472,43 Holland Drive#01-49Singapore (270043),Japanese,Goro Japanese Cuisine,1.3072044,103.7930683,9
473,1 Fullerton Square Lobby - Level 1South Courtyard The Fullerton Hotel Singapore Singapore (049178),"Bar, Local, Burgers",Grand Cru at South Courtyard,1.2863532,103.8530671,49
474,12 Kallang Avenue#02-07/08Aperia Mall Singapore (339511),"Bar, Japanese, Seafood, Vegetarian Friendly, Cafe",Grand jeté izakaya,1.3100591,103.8643756,8
475,1 Beach Road Raffles Singapore Singapore (189673),British,The Grand Lobby (Raffles Hotel),1.2948829,103.8544791,16
476,60 Albert Street Level 2Singapore (189969),"Chinese, Local, Zi Char",Granny’s Secret,1.3024158,103.8539626,45
477,393 Guillemard Road Singapore (399790),"American, Italian, Burgers",Grapevine @ Guillemard,1.3119868,103.8883456,42
478,787 Upper Serangoon Road Singapore (534654),"Bar, Italian, Pizza, Burgers",Grapevine Bar & Restaurant,1.355462,103.8793532,36
479,1 Hoe Chiang Road Singapore (089310),"Indian, Vegetarian Friendly, Cafe",Gravy Restaurant & Bar,1.2740918,103.8426845,31
480,430 Upper Changi Road#01-06East Village Singapore (487048),"Thai, Halal Certified",GREAThai (East Village),1.3318464,103.9463496,46
481,30 Tuas Bay Drive Singapore (637548),"American, Bar, Japanese, Italian, Vegetarian Friendly",Greenhouse Cafe,1.3152309,103.6327094,18
482,31 Ocean Way#01-02Quayside Isle Singapore (098375),"Chinese, Japanese, Seafood",Greenwood Fish Market @ Asian Cuisine,1.24805,103.8415831,29
483,34 & 38 Greenwood Avenue Singapore (289236),Seafood,Greenwood Fish Market @ Bukit Timah,1.3318927,103.8062581,30
484,31 Ocean Way#01-04/05Quayside Isle @ Sentosa Cove Singapore (098375),Seafood,Greenwood Fish Market @ Quayside Isle,1.2477209,103.8419157,29
485,200 South Bridge Road Singapore (058749),Cafe,Grids & Circles,1.2836154,103.8458592,4
486,142 Arab Street Singapore (199828),"American, Fusion, Seafood, Steakhouse, Vegetarian Friendly, Halal Certified, Cafe, Pizza, BBQ",Grill Ninety Nine,1.3026001,103.8580683,8
487,392 Havelock Road Grand Copthorne Waterfront Hotel Singapore (169663),"Italian, Vegetarian Friendly",Grissini,1.2900873,103.8353025,0
488,181 South Bridge Road#01-05 & #K1-04Singapore (058743),"American, Australian, All-Day Breakfast, Vegetarian Friendly",Group Therapy Coffee (Cross Street Exchange),1.2838372,103.8470596,4
489,510 Ang Mo Kio Avenue 1 (Bishan Park 1)Singapore 569983,"American, All-Day Breakfast, Cafe, Burgers",GRUB (Bishan Park),1.3649722,103.8358919,32
490,216 Ang Mo Kio Avenue 4#01-03Kebun Baru Community Centre Singapore (569897),"American, All-Day Breakfast, Burgers",The Grumpy Bear @ Ang Mo Kio,1.3730489,103.8375807,32
491,1 Jalan Anak Bukit#02-01B Bukit Timah Plaza Singapore (588996),"American, Local, Cafe",The Grumpy Bear @ Bukit Timah,1.3386346,103.7785322,17
492,333 Boon Lay Way#2B-02 SAFRA Jurong Singapore (649848),"Cafe, Dessert Only",The Grumpy Bear @ Safra Jurong,1.335065,103.7062804,28
493,301 Upper Thomson Road#02-10Thomson Plaza Singapore (574408),"Fusion, Seafood, Steakhouse, Vegetarian Friendly, Local, Cafe",The Grumpy Bear @ Thomson,1.3548,103.8308,32
494,45 Tai Thong Crescent Sennett Estate Singapore (347866),"Chinese, Seafood, Local, Zi Char",Gu Ma Jia,1.3284529,103.8699639,37
495,20 Gemmill Lane Singapore (069256),Italian,Guccio Ristorante,1.2822119,103.8471948,4
496,32 Maxwell Road#01-06Maxwell Chambers Singapore (069115),"Japanese, Seafood",Guenpin Fugu & Snow Crab Restaurant,1.2772982,103.8463669,31
497,55 Keong Saik Road#01-01Singapore (089158),"Bar, Modern European",The Guild,1.2806857,103.8414578,31
498,36 Purvis Street#01-03Singapore (188613),French,Gunther's,1.2964499,103.8549138,16
499,26 Jalan Selaseh Seletar Hills Estate Singapore (808445),Italian,Gustoso Ristorante Italiano,1.3854938,103.872871,41
500,30 Stevens Road#01-08Singapore (257840),Japanese,The Gyu Bar,1.3139157,103.8284694,44
501,30 Victoria Street#01-01/02CHIJMES Singapore (187996),"Buffet, Japanese, BBQ",Gyu-Kaku (CHIJMES),1.296991,103.8527687,16
502,180 Kitchener Road#05-05City Square Mall Singapore (208539),"Buffet, Japanese, BBQ",Gyu-Kaku (City Square Mall),1.3111877,103.8566675,8
503,11 Tanjong Katong Road#01-14KINEX Singapore (437157),"Buffet, Japanese, BBQ",Gyu-Kaku (KINEX),1.3147221,103.8947554,42
504,6 Raffles Boulevard#02-106Marina Square Singapore (039594),"Buffet, Japanese, BBQ",Gyu-Kaku (Marina Square),1.2911534,103.8576778,12
505,238 Thomson Road#02-46Singapore (307683),"Buffet, Japanese, BBQ",Gyu-Kaku (Novena Square),1.3199572,103.8439076,26
506,176 Orchard Road#02-53/54The Centrepoint Singapore (238843),"Buffet, Japanese, BBQ",Gyu-Kaku (The Centrepoint),1.3021393,103.8396031,38
507,1 Vista Exchange Green#02-17The Star Vista Singapore (138617),"Buffet, Japanese, BBQ",Gyu-Kaku (The Star Vista),1.3068072,103.7883997,9
508,81A Clemenceau Avenue#01-18/19UE Square Singapore (239918),"Buffet, Japanese, BBQ",Gyu-Kaku (UE Square),1.2921277,103.842538,34
509,83 Punggol Central#01-33Waterway Point Singapore (828761),"Buffet, Japanese, BBQ",Gyu-Kaku (Waterway Point),1.40669,103.9021738,1
510,5 Koek Rd#04-02Cuppage Plaza Singapore (228796),Japanese,割烹 旬水 Kappo Shunsui,1.3019646,103.8407001,38
511,223 Upper Thomson Road Singapore (574355),"American, Italian, Cafe",Habitat Coffee,1.3527755,103.8345245,32
512,7 Raffles Boulevard Level 3Pan Pacific Singapore Singapore (039595),"Chinese, Seafood, Vegetarian Friendly, Dim Sum",Hai Tien Lo,1.2924176,103.8585852,12
513,350 Orchard Road Level 4Isetan Shaw House Singapore (238868),"Chinese, Steamboat",Hai Xian Lao 海鲜捞 (Isetan Scotts),1.3059065,103.8314983,11
514,"8 Wilkie Road#01-21, Wilkie Edge Singapore (228095)","Buffet, Chinese, Thai, Seafood, Local, Southeast Asian, Steamboat",Hai Xian Lao 海鲜捞 (Wilkie),1.3018268,103.8498565,45
515,2 Handy Road#01-11/12The Cathay Singapore (229233),French,Hair of the Dog,1.299308,103.8474727,45
516,290 Orchard Road#03-09Paragon Shopping Centre Singapore (238859),"Bar, Modern European, Chinese, Australian, Fusion, International, Vegetarian Friendly, Cafe",Halcyon & Crane,1.3038699,103.8357982,11
517,61 Boat Quay Singapore (049849),"Bar, Indian, Vegetarian Friendly, BBQ, Vegetarian",Haldhi Restaurant and Bar,1.2875148,103.8492407,24
518,"1 Cluny Road Ginger Garden, Botanic Gardens Singapore (259569)","Fusion, Vegetarian Friendly, Halal Certified",The Halia at Singapore Botanic Gardens,1.3109685,103.8148604,20
519,"583 Orchard Road, #01-17,Forum The Shopping Mall Singapore (238884)",Japanese,Hana Restaurant,1.3061111,103.8286111,44
520,5 Koek Road#02-01Cuppage Plaza Singapore (228796),Japanese,Hanashizuku Japanese Cuisine,1.3018423,103.8407889,38
521,10 Lock Road Singapore (108938),"American, Bar",Handlebar @ Gillman Barracks,1.2786035,103.8047957,27
522,80 Mohamed Sultan Road#01-04 The Pier at Robertson Singapore (239013),"Italian, Steakhouse, German, Cafe, Pizza, Burgers","Hannibal, European Grill & Pizza-Bar",1.2918135,103.8406509,34
523,71-72 Boat Quay Singapore (049860),"Bar, Vegetarian Friendly, German, Burgers",HANS IM GLÜCK German Burgergrill (Boat Quay),1.2880225,103.8493556,24
524,362 Orchard Road International Building Singapore (238887),"Bar, Vegetarian Friendly, German, Burgers",HANS IM GLÜCK German Burgergrill (Orchard),1.305891,103.8304798,11
525,9 Raffles Place#01-01Republic Plaza Singapore (048619),"Bar, Vegetarian Friendly, German, Burgers",HANS IM GLÜCK German Burgergrill (Raffles Place),1.2831532,103.8511017,49
526,1 Harbourfront Walk#01-57Vivo City Singapore (098585),"Bar, German, Burgers",HANS IM GLÜCK German Burgergrill (VivoCity),1.2633512,103.8232553,40
527,27 Lorong 13 Geylang Singapore (388670),"Chinese, Seafood, Zi Char",Happiness Seafood by Uncle Leong Signatures,1.3138372,103.8773328,37
528,50 Temple Street Singapore (058595),"Chinese, Seafood, Vegetarian Friendly, Local, BBQ",Happy Dining Seafood 喜来聚海鲜,1.2833282,103.8436738,4
529,"50 Cuscaden Road#02/03-01, HPL House Singapore (249724)","American, Bar, Burgers",Hard Rock Cafe (Cuscaden),1.3057875,103.8281305,44
530,"26 Sentosa Gateway#01-209-214 The Forum, Sentosa Island Singapore (098138)","American, Bar, Cafe, Burgers, BBQ",Hard Rock Cafe (Sentosa),1.255179,103.8218107,14
531,18 Tai Seng Street#01-K4/23-25Singapore (539775),"American, Bar, Pizza, Burgers",Harry's (18 Tai Seng),1.3363233,103.8892129,2
532,545 Orchard Road#01-01/02Far East Shopping Centre Singapore (238882),"American, Bar, Pizza, Burgers",Harry's (Angullia Park),1.3057392,103.8299232,11
533,28 Boat Quay Singapore (049818),"American, Bar, Pizza, Burgers",Harry's (Boat Quay),1.2858214,103.8497276,24
534,1 Netheravon Road#01-04/05Village Hotel Changi Singapore (508502),"American, Bar, Pizza, Burgers",Harry's (Changi Village),1.3904345,103.9861364,7
535,30 Victoria Street#01-14CHIJMES Singapore (187996),"American, Bar, Pizza, Burgers",Harry's (CHIJMES),1.294692,103.8526249,16
536,181 South Bridge Road#01-03/K2Singapore (058743),"American, Bar, Pizza, Burgers",Harry's (China Square Central),1.2839879,103.8473944,4
537,3D River Valley Road#01-01Singapore (179023),"American, Bar, Pizza, Burgers",Harry's (Clarke Quay),1.2958784,103.839736,38
538,17/19 Cuppage Road Cuppage Terrace Singapore (229450),"American, Bar, Pizza, Burgers",Harry's (Cuppage),1.301777,103.8402526,38
539,11 Dempsey Road#01-17A Singapore (249673),"American, Bar, Pizza, Burgers",Harry's (Dempsey Hill),1.3041967,103.8100139,20
540,8 Raffles Avenue#01-05/07Esplanade Mall Singapore (039802),"American, Bar, Pizza, Burgers",Harry's (Esplanade),1.28967,103.8562856,12
541,1 Maritime Square#01-64Harbour Front Centre Singapore (099253),"American, Bar, Pizza, Burgers",Harry's (HarbourFront),1.2650072,103.8200037,40
542,22 Lorong Mambong Singapore (277681),"American, Bar, Pizza, Burgers",Harry's (Holland Village),1.3115439,103.7949792,9
543,40 Pasir Panjang Road#02-43/44Singapore (117383),"American, Bar, Pizza, Burgers",Harry's (Mapletree Business City),1.2754062,103.7997842,27
544,8A Marina Boulevard#01-03Ground Plaza Singapore (018984),"American, Bar, Pizza, Burgers",Harry's (Marina Bay Link Mall),1.2799447,103.8547618,49
545,238 Thomson Road#01-59/60Novena Square Singapore (307683),"American, Bar, Pizza, Burgers",Harry's (Novena),1.3198822,103.8439452,26
546,26 Sentosa Gateway#01-215/216Resorts World Sentosa Singapore (098138),"American, Bar, Pizza, Burgers",Harry's (Resorts World Sentosa),1.255179,103.8218107,14
547,30 Merchant Road#01-04Singapore (058282),"American, Bar, Pizza, Burgers",Harry's (Riverside Point),1.2895277,103.8439076,34
548,26 Beach Road#01-18Singapore (189768),"American, Bar, Pizza, Burgers",Harry's (South Beach),1.2947213,103.8560526,16
549,9 Tampines Grande#01-09Singapore (528735),"American, Bar, Pizza, Burgers",Harry's (Tampines Grande),1.3557701,103.9414999,15
550,60 Robertson Quay#01-05/06Singapore (238252),"American, Bar, Pizza, Burgers",Harry's (The Quayside),1.2903566,103.8394691,34
551,1 Seletar Road#02-12Greenwich V Singapore (807011),Japanese,Haruyuki Japanese Restaurant,1.3873705,103.8694069,41
552,13 Dempsey Road#01-07Singapore (249674),Modern Asian,Hathaway,1.3047447,103.8103509,20
553,407 Jalan Besar Road Singapore (209012),"Fusion, Seafood",Haven Bistro,1.3137754,103.8597872,8
554,1 Keong Saik Road Singapore (089109),"American, Bar, Vietnamese",Heart of Darkness,1.2789177,103.8414072,31
555,273 Holland Avenue#01-01Singapore (278992),"French, Fusion, Cafe",Heirloom Bistro,1.3114,103.79564,9
556,12 Artillery Avenue#01-04/05/06Singapore (099953),Japanese,Hide by Hide Yamamoto,1.252019,103.820981,14
557,38 Jalan Pemimpin#01-03M38 Singapore (577178),"American, Fusion",The Hideout at District 20,1.34834,103.8416902,32
558,581 Orchard Road Lobby Level Hilton Singapore Singapore (238883),"International, Vegetarian Friendly",Hilton All-Day Pop-Up Restaurant,1.305891,103.82942,44
559,65 Circular Road Singapore (049419),"Bar, Japanese, BBQ",The Hitsuji Club,1.2863483,103.8491838,24
560,33-35 Pekin Street Far East Square Singapore (048763),Japanese,Hokkai Villa,1.2837308,103.8483466,4
561,3B River Valley Road#01-01Singapore (179024),"Bar, Vegetarian Friendly, Pizza, Burgers",Holey Moley Golf Club (Dining),1.2958784,103.839736,38
562,13 Stamford Road#01-85 Singapore (178905),"Seafood, Southeast Asian, Modern Asian",HolyCrab,1.2930748,103.8510451,16
563,1 Joo Chiat Place Singapore (427739),"Chinese, Seafood, Halal Certified",Home Of Seafood,1.3132318,103.8998721,42
564,1088 Serangoon Road Singapore (328188),"American, Bar, BBQ",Homeground Grill & Bar,1.3238241,103.8650069,37
565,200 Victoria Street#B1-06Bugis Junction Singapore (188021),Chinese,Honguo (Bugis Junction),1.2992907,103.8553101,16
566,23 Serangoon Central#B1-75NEX Singapore (556083),Chinese,Honguo (NEX),1.3507723,103.8722585,36
567,3 South Buona Vista Road#B1-06Viva Vista Mall Singapore (118136),"American, Cafe",HooHa Cafe,1.279654,103.7861058,27
568,45 Malan Road Singapore (109443),"Bar, Fusion, BBQ",Hopscotch,1.274611,103.8039141,27
569,"583 Orchard Road, #B1-39Forum the Shopping Mall Singapore (238884)","Bar, Japanese",The Horse's Mouth,1.3061111,103.8286111,44
570,3D River Valley Road#01-06Singapore (179023),"American, Bar, Modern European, Steakhouse",Hot Stones Steak and Seafood,1.2958766,103.8397164,38
571,163 Tanglin Road#03-17Tanglin Mall Singapore (247933),"Modern European, Greek",House of AnLi Bistro,1.305035,103.823981,44
572,21 Arab Street Singapore (199844),"Vegetarian Friendly, BBQ, Turkish",House of Kebab,1.3003495,103.8597744,8
573,3A River Valley Road#A2-02Clarke Quay Singapore (179020),"Chinese, Seafood, BBQ",House of Seafood (Clarke Quay),1.289583,103.8450571,24
574,3 Punggol Point Road#01-01/02The Punggol Settlement Singapore (828694),"Chinese, Seafood, Local, Dim Sum, Zi Char",House of Seafood (Punggol Point),1.4209159,103.9118806,1
575,1 Kim Seng Promenade #01-K101 & #02-K103 Singapore,"Fusion, International",House on the Moon,1.2937233,103.8318946,0
576,"442 Orchard Road Orchard Hotel Singapore, Level 2Singapore (238879)",Chinese,Hua Ting,1.3075,103.8286111,44
577,23 Baghdad Street Singapore (199662),"Middle Eastern, Vegetarian Friendly",Hummus & Grill,1.3011848,103.8597741,8
578,18 Bukit Pasoh Road Singapore (089832),"Bar, Seafood, Vegetarian Friendly",Humpback,1.2790902,103.840797,31
579,3D River Valley Road#01-07Singapore (179023),Chinese,Hutong,1.2958763,103.8397125,38
580,252 North Bridge Road B1-74Raffles City Shopping Centre Singapore (179103),"Korean, BBQ",Hyang-To-Gol Korean Restaurant (Raffles City),1.293548,103.853679,16
581,674 North Bridge Road#01-01Singapore (188804),"Cafe, Burgers",I am... (Haji Lane),1.3016511,103.8584528,8
582,76a Duxton Road Singapore (089535),Bar,IB HQ Singapore,1.2782996,103.8431688,31
583,2 Kovan Road#01-10Simon Plaza Singapore (548008),"Cafe, Modern Asian",Ice Edge Cafe (Kovan),1.3620806,103.8852713,36
584,21 Media Circle#01-05Singapore (138562),"American, Bar, Buffet, Fusion, Burgers",Idle @ Infinite Studios,1.2922144,103.7945491,27
585,581 Orchard Road Level 3Hilton Hotel Singapore (238883),"International, Vegetarian Friendly",Iggy's,1.305891,103.82942,44
586,"9 North Buona Vista Drive, #01-06/07Singapore (138588)",Japanese,IKKI Izakaya,1.3057338,103.7918068,9
587,581 Orchard Road Level 24Hilton Singapore Singapore (238883),"Italian, Vegetarian Friendly",il Cielo,1.3059187,103.8293246,44
588,215 South Bridge Road Singapore (058764),"Chinese, Steamboat",Imperi Health Pot,1.2829497,103.8458899,4
589,30 Stevens Road#01-04/05Singapore (257840),Italian,In Piazza,1.3139157,103.8284694,44
590,27 Upper East Coast Road Singapore (455211),"Indian, Vegetarian Friendly",Indian Curry House (Siglap),1.3130881,103.9263173,6
591,49 Boat Quay Singapore (049838),"Indian, Vegetarian Friendly",Indian House (49 Boat Quay),1.2869596,103.8493865,24
592,1 Scotts Road#03-09Shaw Centre Singapore (228208),Peranakan,Indigo Blue Kitchen,1.3062932,103.8318472,11
593,28 Keong Saik Road Singapore (089135),"Bar, Buffet, Indian, Vegetarian Friendly",Indline Restaurant,1.2802067,103.8416919,31
594,35 Scotts Road Singapore (228227),"Vegetarian Friendly, Peranakan",Indocafe - The White House,1.3110536,103.8354912,11
595,30 Victoria Street#01-21/22Singapore (187996),"Bar, Thai, Vietnamese, Fusion, Local, Southeast Asian",IndoChine (CHIJMES),1.2949219,103.8526895,16
596,4 Hillview Rise#02-01Hill V2Singapore (667979),"Bar, Italian, Vegetarian Friendly, Pizza",iO Italian Osteria Singapore,1.3629834,103.7645009,48
597,17B Dempsey Road Singapore (249676),Japanese,Ippoh Tempura Bar,1.3056641,103.8102429,20
598,1 Kim Seng Promenade#01-123Great World City Singapore (237994),Japanese,Issho Izakaya (Great World City),1.2936417,103.8319293,0
599,17 Baghdad Street Singapore (199656),"Middle Eastern, Greek",Istanblue Meze & Grill Turkish Restaurant,1.3012406,103.8595939,8
600,2 Jurong East Central 1#04-19J Cube Singapore (609731),"Japanese, Halal Certified",Isuramuya Japanese Restaurant and Marketplace,1.33331,103.7401992,3
601,190 Middle Road#03-01Fortune Centre Singapore (188979),Japanese,Izakaya Hikari,1.3004744,103.8520542,45
602,27 Club Street Singapore (069413),"Bar, Local, Southeast Asian, Modern Asian",Izy Fook,1.2824263,103.846543,4
603,81 Anson Road Level 9M Hotel Singapore Singapore (079908),"American, Bar",J Bar,1.273767,103.8450399,31
604,1A Cuscaden Road Level 1Hotel Jen Tanglin Singapore Singapore (249716),"Buffet, Chinese, Malaysian, International, Seafood, All-Day Breakfast, Local, Southeast Asian",J65 @ Hotel Jen Tanglin,1.304358,103.82392,44
605,"1 Fullerton Square, Singapore (049178)",Chinese,Jade,1.2862279,103.8530525,49
606,384 East Coast Road Singapore (428988),"Modern European, Spanish, Vegetarian Friendly",Jag Wine,1.3087041,103.9114684,23
607,583 Orchard Road#01-01/04Forum The Shopping Mall Singapore (238884),"Bar, Italian, Vegetarian Friendly",Jamie's Italian (Forum),1.3061111,103.8286111,44
608,74 Neil Road Singapore (088839),"Bar, Fusion, Local, Modern Asian",Jekyll & Hyde,1.2798303,103.8424746,31
609,1 Farrer Park Station Road#01-14/15/16One Farrer Hotel Connexion Singapore (217562),"Chinese, Seafood, Vegetarian Friendly, Local, Dim Sum",Jia He Chinese Restaurant,1.3125457,103.8543732,8
610,6 Raffles Boulevard#03-128Marina Square Singapore (039594),"Chinese, Vegetarian Friendly, Local, Southeast Asian, Modern Asian",Jia He Xing Dumpling 嘉合兴,1.2911534,103.8576778,12
611,50 East Coast Road Roxy Square Singapore,"Chinese, Vegetarian Friendly, Local",Jia Wei Chinese Restaurant,1.3039864,103.9043811,23
612,8 Raffles Avenue#02-14Esplanade Mall Singapore (039802),Chinese,Jiak Modern Tzechar (Esplanade),1.2893743,103.8558855,12
613,4 Hillview Rise#02-04Hillv2Singapore (667979),"Chinese, Malaysian, Seafood, Vegetarian Friendly, Local, Halal Certified, Zi Char",Jiak Modern Tzechar (Hillview),1.363354,103.7643204,48
614,190 Orchard Boulevard Level 2Four Seasons Hotel Singapore Singapore (248646),"Chinese, Seafood, Dim Sum",Jiang-Nan Chun Restaurant,1.3052778,103.8283333,44
615,165 Tanjong Pagar Road Amara Singapore Singapore (088539),Bar,Jigger & Pony,1.2747537,103.8435337,31
616,45 Minden Road Singapore (248817),Thai,Jim Thompson Thai Restaurant and Wine Bar,1.3055206,103.8155129,20
617,9 King Albert Park#01-27Singapore (598332),Japanese,Jimoto Dining,1.3370239,103.7794324,17
618,76 Telok Ayer Street#01-02Amoy Hotel Singapore (048464),Japanese,Jin Fine Dining,1.2829731,103.8487244,4
619,"1 Fullerton Road, #01-02/03, One Fullerton, Singapore (049213)","Chinese, Seafood, Local, Dim Sum, Zi Char",JING Seafood Restaurant,1.2856406,103.8539179,49
620,1 Scotts Road#02-19/20Shaw Centre Singapore (228208),"Bar, Japanese, BBQ",Jinjo,1.3064372,103.8316534,11
621,5 Tan Quee Lan Street Singapore (188094),"Bar, Korean, Vegetarian Friendly",Joo Bar,1.2981769,103.8569231,16
622,391A Orchard Road#02-13Takashimaya Singapore (238873),"American, Vegetarian Friendly, Halal Certified, Cafe, Pizza",JTSH Cafe,1.3025572,103.834568,11
623,Block 11 Dempsey Road#01-16Singapore (249673),"Chinese, Seafood, Local, Zi Char",JUMBO Seafood (Dempsey Hill),1.3043337,103.8099395,20
624,Blk 1206 East Coast Parkway#01-07/08East Coast Seafood Centre Singapore (449883),"Chinese, Seafood, Local, Zi Char",JUMBO Seafood (East Coast Seafood Centre),1.3051669,103.930673,6
625,2 Orchard Turn#04-09/10ION Orchard Singapore (238801),"Chinese, Seafood, Local, Dim Sum",JUMBO Seafood (ION Orchard),1.3039288,103.8319512,11
626,"78 Airport Boulevard#03-202, 203 & 204Jewel Changi Airport Singapore (819666)","Chinese, Seafood, Local",JUMBO Seafood (Jewel Changi Airport),1.3583193,103.9889212,21
627,30 Merchant Road#01-01/02Riverside Point Singapore (058282),"Chinese, Seafood, Local, Zi Char",JUMBO Seafood (Riverside Point),1.2889419,103.8446997,24
628,20 Upper Circular Road#B1-48The Riverwalk Singapore (058416),"Chinese, Seafood, Local, Zi Char",JUMBO Seafood (The Riverwalk),1.2891375,103.8483462,24
629,20 Biopolis Way#01-01Centros Singapore (138668),"Korean, BBQ",Jun BBQ & Beer,1.3037881,103.7921115,9
630,"2 Orchard Turn Level 56, ION Sky Singapore (238801)","Malaysian, Fusion, Local, Cafe, Burgers",Jurassic World Cafe Singapore,1.304052,103.831767,11
631,2 Bayfront Avenue L1-83The Shoppes at Marina Bay Sands Singapore (018972),"Chinese, Local, Modern Asian",JustIN Flavours of Asia,1.2837366,103.8591923,49
632,"78 Airport Boulevard#01-223,224/225Singapore (819666)",Japanese,JW360 Suju Masayuki Japanese Restaurant,1.3603912,103.989642,21
633,38A Martin Road#01-02Singapore (239072),"Japanese, Seafood",JYPSY Martin Road,1.2921214,103.8380038,34
634,"181 South Bridge Road#02-01Capri by Fraser, China Square Singapore (058743)","Buffet, Chinese, International, Seafood, All-Day Breakfast",JÙN Restaurant,1.2835222,103.8469123,4
635,2 College Road Singapore (169850),"Chinese, Vegetarian Friendly",Ka-Soh (Outram),1.2824347,103.836047,0
636,200A Telok Ayer Street Singapore (068638),"Bar, Japanese, Modern Asian",Kabuke,1.2802066,103.8471007,4
637,6 Raffles Boulevard#03-128A/128B Marina Square Singapore (039594),"Chinese, Seafood, Dim Sum",Kai Garden (Marina Square),1.2905266,103.8575364,12
638,78 Airport Boulevard#02-210Jewel Changi Airport Singapore (819666),Chinese,Kam's Roast (Jewel Changi Airport),1.3603912,103.989642,21
639,9 Scotts Road#01-04/05/06/07Pacific Plaza Singapore (228210),"Chinese, Southeast Asian",Kam's Roast (Pacific Plaza),1.3064965,103.8319905,11
640,30 Robertson Quay#01-54Singapore (238251),Japanese,Kan Sushi (Robertson Quay),1.291333,103.8414166,34
641,10 Anson Road#02-54International Plaza Singapore (079903),Japanese,Kan Sushi (Tanjong Pagar),1.2756998,103.8458098,31
642,40 Lorong Mambong Singapore (277695),Japanese,KANPAI Izakaya & Bar,1.311763,103.794398,9
643,617 Bukit Timah Road Singapore (269718),"American, Vegetarian Friendly, Cafe",KARA Cafe & Dessert Bar,1.3244258,103.8092981,30
644,15 Stamford Road#01-83Singapore (178905),"Japanese, Seafood",Katachi Style Sushi,1.2934493,103.8518286,16
645,25 Marine Parade Road Village Hotel Katong Level 4Singapore (449536),"Buffet, Chinese, Malaysian, Seafood, Local, Peranakan, Halal Certified",Katong Kitchen,1.3037177,103.9029408,23
646,1 Scotts Road#03-07Shaw Centre Singapore 228208,"Modern European, Local, Southeast Asian",Kausmo,1.3063434,103.8318606,11
647,25 Church Street#01-03Capital Square Singapore (049482),"Middle Eastern, Vegetarian Friendly",Kazbar,1.2840326,103.8484637,4
648,200 Turf Club Road#01-12 The Grandstand Singapore (287994),"Bar, Steakhouse, Cafe",Keef The Beef,1.3380084,103.7934418,17
649,Blk 211 Toa Payoh Lorong 8#01-11/15Singapore (310211),"Chinese, Seafood, Zi Char",Kelly Jie Seafood (Formerly TPY Mellben),1.340419,103.8537637,26
650,7 Raffles Boulevard Level 4Pan Pacific Singapore Singapore (039595),Japanese,Keyaki,1.2924176,103.8585852,12
651,166 Serangoon Road Singapore (218050),Indian,Khansama Tandoori Restaurant,1.3081446,103.8530341,8
652,87 Science Park Drive#02-01The Oasis Singapore (118260),Indian,Khansama Tandoori Village,1.2877321,103.7903725,27
653,29 Scotts Road Singapore (228224),Japanese,Ki-Sho,1.3106807,103.8346232,11
654,97 Duxton Road Singapore (089541),"Fusion, Vegetarian Friendly",Kilo Kitchen,1.2794847,103.8432495,31
655,31 Bukit Pasoh Road Singapore (089845),"Local, Southeast Asian, Peranakan",Kin,1.279295,103.840375,31
656,35 Circular Road Singapore (049391),"Bar, Thai, Seafood",Kin-D,1.2865665,103.8491271,24
657,24 Purvis Street Level 2Singapore (188601),"American, Bar, Cafe",King and the Pawn,1.296154,103.855399,16
658,11 Unity Street#01-18/29Robertson Walk Singapore (237995),"Bar, Modern European",King Ohmii,1.291844,103.8411449,34
659,17 Teck Chye Terrace Singapore (545724),"Buffet, Chinese, Seafood, Local, Steamboat",King's Laksa Steamboat,1.3532582,103.876565,36
660,70 Collyer Quay#02-02 Customs House Singapore (049323),"Bar, Japanese, Vegetarian Friendly",Kinki Restaurant,1.2824913,103.8534753,49
661,81 Tras Street Singapore (079020),"Bar, French, Fusion, International",Kinou,1.2773537,103.8443252,31
662,405 Havelock Road Level 3Furama River Front Singapore Singapore (169633),"Buffet, Indonesian, Halal Certified",Kintamani Indonesian Restaurant,1.28774,103.8359909,0
663,28 Stanley Street Singapore (068737),"All-Day Breakfast, Vegetarian Friendly, Local, Cafe",Kitchen by Food Rebel,1.2809429,103.848283,4
664,21 Ocean Way W Singapore Sentosa Cove Singapore (098374),"Buffet, International, Seafood",the kitchen table (W Singapore – Sentosa Cove),1.2462857,103.8423347,29
665,11 Cairnhill Road#01-01Ascott Orchard Singapore Singapore (229724),"Vegetarian Friendly, Cafe",Kith Cafe (Ascott Orchard),1.3032547,103.837268,38
666,619D Bukit Timah Road Singapore (269724),"Australian, Cafe",Kith Cafe (Bukit Timah),1.3244783,103.8092231,30
667,9 Raffles Boulevard#01-44/45Millenia Walk Singapore (039596),"All-Day Breakfast, Cafe",Kith Cafe (Millenia Walk),1.2921214,103.8595792,12
668,75 Amoy Street Singapore (069894),Japanese,Kiyoshi Japanese Restaurant,1.2803924,103.8467764,4
669,68 Tanjong Pagar Singapore (088489),Korean,Kko Kko Na Ra (Tanjong Pagar),1.2787992,103.8437687,31
670,185 Upper Thomson Road Singapore (574333),Cafe,Knockhouse Cafe,1.3514312,103.8353286,32
671,"1 The Knolls, Sentosa Island Singapore (098297)",Modern European,The Knolls,1.249141,103.8248866,14
672,160 Paya Lebar Road#01-07Orion@Paya Lebar Singapore (409022),"All-Day Breakfast, Cafe",Knots Cafe and Living,1.3293132,103.8901747,2
673,8 Rodyk Street#01-05/06Singapore (238216),"Bar, Modern European, Cafe",KOB - Kingdom of Belgians,1.2902204,103.8376575,34
674,4 & 6 Jalan Kledek Singapore (199261),Thai,Koh Nangkam,1.3035759,103.8591077,8
675,3 Pickering Street#01-42Nankin Row Singapore (048660),Japanese,Koji Sushi Bar (Pickering Street),1.2844559,103.8471133,4
676,252 North Bridge Road#03-28A Raffles City Shopping Centre Singapore (179103),Japanese,Koji Sushi Bar (Raffles City),1.2937585,103.8534331,16
677,2 Bayfront Avenue#B1-67Marina Bay Sands Singapore (018972),"Bar, Japanese, Vegetarian Friendly",KOMA Singapore,1.2836602,103.8592707,49
678,366 Orchard Road Level 10YOTEL Singapore Singapore (238904),"Bar, Fusion, International, Vegetarian Friendly",KOMYUNITI,1.3064431,103.8319819,11
679,11 Rhu Cross#01-02Singapore (437440),"American, Bar, Buffet, Italian, Seafood, Steakhouse, Vegetarian Friendly",Kontiki,1.2950157,103.8673318,12
680,"2 Stamford Road Level 2, Swissotel The Stamford,Singapore (178882)",Local,Kopi Tiam,1.2932771,103.8535076,16
681,5 Dunlop Street#02-00Singapore (209335),"Korean, Fusion, BBQ",Korean Fusion BBQ (Dunlop Street),1.3043556,103.8541612,8
682,2 Dickson Road Wanderlust Hotel Singapore (209494),Indian,Kotuwa,1.3051497,103.854646,8
683,8 Jalan Klapa Singapore (199320),"Cafe, Dessert Only",Kumoya @ Jalan Klapa,1.3042989,103.8599996,8
684,181 Orchard Road#04-08Orchard Central Singapore (238896),"Cafe, Dessert Only",Kumoya @ Orchard Central,1.3006295,103.8398742,38
685,9 Raffles Boulevard#02-07Millenia Walk Singapore (039596),"Bar, Japanese",Kurama Robatayaki X Sushi Murasaki,1.2928181,103.8598344,12
686,182 Cecil Street#02-11Frasers Tower Singapore (069547),Japanese,Kure Menya @ Frasers Tower,1.2786632,103.8474008,4
687,1 Kim Seng Promenade#01-127Great World City Singapore (237934),Japanese,Kuriya Dining,1.2936417,103.8319293,0
688,417 River Valley Road Singapore (248316),Indian,Kurry Korner (River Valley),1.2952425,103.8296334,0
689,526 Macpherson Road Singapore (368216),"Bar, Buffet, Japanese",Kushi Japanese Dining,1.3324779,103.8843435,2
690,Sofitel Singapore Sentosa Resort & Spa2 Bukit Manis Road Sentosa Singapore (099891),"Buffet, Chinese, International, Seafood, Vegetarian Friendly, Southeast Asian",Kwee Zeen (Sofitel Sentosa),1.2456916,103.8278754,14
691,111 Somerset Road#02-05/06Singapore (238164),Japanese,Kyoaji Dining,1.3001685,103.8372952,38
692,5 Yong Siak Street Singapore (168643),"Japanese, Seafood",Kyoten Japanese Cuisine,1.2824797,103.830423,0
693,29 Keong Saik Road Singapore (089136),Japanese,Kyuu by Shunsui,1.2799914,103.8414329,31
694,85 Club Street Singapore (069453),French,L'Angelus,1.2817018,103.8456841,4
695,70 Collyer Quay#01-01Customs House Singapore (049323),French,L'Entrecôte The Steak & Fries Bistro (Customs House),1.2824913,103.8534753,49
696,36 Duxton Hill Singapore (089614),"French, Steakhouse",L'Entrecôte The Steak & Fries Bistro (Duxton),1.2784789,103.8428048,31
697,190 Clemenceau Avenue #01-28 Singapore Shopping Centre Singapore (239924),"French, Cafe, Dessert Only",L'éclair Pâtisserie,1.298267,103.844008,38
698,214 East Coast Road Singapore (428913),"Bar, French, Italian, Cafe",La Bonne Table,1.307333,103.907265,23
699,5 Greendale Ave Singapore (289501),Italian,La Braceria,1.3317936,103.8071613,30
700,80 Collyer Quay Lobby Level The Fullerton Bay Hotel Singapore (049326),"Modern European, French",La Brasserie,1.2832383,103.8536272,49
701,1 Beach Road Raffles Hotel Singapore Singapore (189673),French,La Dame de Pic,1.2948829,103.8544791,16
702,35 Selegie Road#01-06Parklane Shopping Mall Singapore (188307),"Chinese, Steamboat",La Jiang Shan Hotpot,1.3006866,103.8493616,45
703,80 Mohamad Sultan Road#01-10The Pier @ Robertson Quay Singapore (239013),Bar,La Maison du Whisky,1.2918135,103.8406509,34
704,26/26B Lorong Mambong Singapore (277685),"Italian, Vegetarian Friendly",La Nonna (Holland Village),1.3116818,103.7948547,9
705,81A Clemenceau Ave#01-22UE Square Singapore (239917),"Bar, Spanish, Cafe",La Pasteleria Kitchen and Bar,1.2921679,103.8426697,34
706,19 Kalidasa Avenue Singapore,Italian,La Pizzaiola (Delivery),1.3814902,103.8297208,39
707,52 West Coast Ferry Road Level 2Singapore (126887),"Italian, Vegetarian Friendly, Pizza",La Pizzeria at Bridge and Beacon Bar,1.2926833,103.7626794,22
708,11 Dempsey Road#01-17Singapore (249673),Mexican,La Salsa,1.3042341,103.8100792,20
709,13 Stamford Road Arcade @ The Capitol Kempinski Singapore (178906),Italian,La Scala Ristorante (The Capitol Kempinski Hotel Singapore),1.293891,103.8513613,16
710,1 Scotts Road#01-13Shaw Centre Singapore (228208),Italian,La Strada,1.3062932,103.8318472,11
711,1 Scotts Road#02-18Shaw Centre Singapore (228208),Spanish,La Tapería Wine & Tapas,1.3062932,103.8318472,11
712,29 Tanglin Road Level 2The St. Regis Singapore Singapore (247911),"Italian, Vegetarian Friendly",LaBrezza (The St. Regis Singapore),1.3055457,103.8260886,44
713,56 Tanglin Road#B1-01Singapore (247964),"Italian, Seafood, Pizza",Lafiandra Ristorante,1.3056253,103.8229393,44
714,6 Upper Dickson Road Singapore (207466),Indian,Lagnaa... barefoot dining,1.3063671,103.852261,45
715,Blk 168 Lor 1 Toa Payoh#01-1040Singapore (310168),"Chinese, Malaysian, Seafood, Vegetarian Friendly, Local, Steamboat, Zi Char, Modern Asian",Lai Bao Fish Head Steamboat 徕寶鱼头炉,1.3319248,103.8434952,26
716,80 Collyer Quay Lobby Level The Fullerton Bay Hotel Singapore (049326),Bar,The Landing Point,1.2832383,103.8536272,49
717,390 Victoria Street#05-01Village Hotel Bugis Singapore (188061),"Buffet, Indian, Seafood, Vegetarian Friendly, Local, Halal Certified",The Landmark,1.3023045,103.8578797,8
718,80 Collyer Quay The Fullerton Bay Hotel Singapore (049326),"American, Bar, Fusion, Vegetarian Friendly, Local, Cafe",Lantern,1.2832383,103.8536272,49
719,238 Thomson Road#02-11/12Velocity @ Novena Square Singapore (307683),Chinese,Lao Beijing,1.3198822,103.8439452,26
720,267 Jalan Kayu Singapore (799495),"Chinese, Seafood, Local, Dim Sum, Southeast Asian, Zi Char",Lao Hero Kitchen,1.3970612,103.8729946,25
721,333A Orchard Road#04-01/31Mandarin Gallery Mandarin Orchard Singapore (238897),"American, Steakhouse",Lawry's The Prime Rib Singapore,1.302037,103.8362722,38
722,115 Amoy Street#01-04Singapore (069935),"Japanese, French, Fusion",Le Binchotan,1.282329,103.847521,4
723,53 Armenian Street Singapore (179940),"Bar, French, Vegetarian Friendly",Le Bistrot Du Sommelier,1.2945799,103.8492973,16
724,29 Club Street Singapore (069414),Bar,Le Bon Funk,1.282407,103.8465012,4
725,"80 Mohamed Sultan Road#01-7, 8/9Singapore (239013)","Chinese, Fusion, International, Modern Asian",Le Fusion,1.2915196,103.8407372,34
726,"2 Bayfront Avenue01-84 Bay Level, The Shoppes at Marina Bay Sands Singapore (018972)","Fusion, International, Pizza",Le Noir (Marina Bay Sands),1.2837366,103.8591923,49
727,903 Bukit Timah Road Singapore (589620),"Bar, Indian, French, Greek, Vegetarian Friendly","Le Rida (Mediterranean, French & North Indian Cuisine)",1.3331752,103.7902874,17
728,Sofitel Singapore Sentosa Resort and Spa Hotel2 Bukit Manis Road Sentosa Singapore (099891),"Bar, Japanese, French, Seafood",LeBar,1.2456916,103.8278754,14
729,350 Orchard Road#01-K2 & #01-K3Shaw House Singapore,Mon-Sun: 11:30am-9pm,Leckerbaer (Delivery),1.305645,103.8315277,11
730,10 Science Centre Road#01-23Singapore (609079),"Chinese, Seafood, Zi Char",Legacy Seafood,1.3307311,103.737877,3
731,96 Tanjong Pagar Road Singapore (088517),"Bar, Modern European, Vegetarian Friendly, German",Leopold,1.278229,103.8437469,31
732,104 Amoy Street Singapore (069924),"Modern European, French, Fusion",Lerouy,1.281748,103.847368,4
733,1 Scotts Road#01-16Shaw Centre Singapore (228208),French,Les Amis,1.3066019,103.8314361,11
734,7 Ann Siang Road Singapore (069689),"French, Steakhouse",Les Bouchons @ Ann Siang,1.2814489,103.8455104,4
735,60 Robertson Quay#01-02Singapore (238252),"French, Steakhouse",Les Bouchons Rive Gauche at Robertson Quay,1.2903566,103.8394691,34
736,222 Upper Thomson Rd Singapore (574354),"Fusion, All-Day Breakfast, Cafe, Burgers",Les Patisseries,1.3528963,103.8352754,32
737,8 Marina Boulevard#33-01 Marina Bay Financial Centre S(018981),"Bar, International, Seafood, Vegetarian Friendly",LeVeL33,1.2798897,103.8548685,49
738,39 Scotts Road Sheraton Towers Singapore (228230),"Chinese, Dim Sum",Li Bai Cantonese Restaurant,1.3118244,103.8364761,11
739,295 South Bridge Road Singapore (058838),"Chinese, Seafood, Vegetarian Friendly, Modern Asian",Li Ji Chuan Chuan Xiang 李记串串香,1.281333,103.844994,4
740,75 Jellicoe Road#01-01Wavelink Building Singapore (208738),"Bar, Fusion, Seafood, Local",Lighthouse Bistro & Bar,1.3086678,103.8627316,8
741,2 Jiak Chuan Road Singapore (089260),"Bar, Vegetarian Friendly, Caribbean",Lime House Caribbean Restaurant & Bar,1.2796184,103.8417128,31
742,3 Upper Pickering Street PARKROYAL COLLECTION Pickering Singapore (058289),"Bar, International, Vegetarian Friendly, Local, Southeast Asian",Lime Restaurant at PARKROYAL COLLECTION Pickering,1.2858085,103.8460908,24
743,"95 Robertson Quay, Rivergate #01-19/20",Italian,Limoncello,1.2904475,103.8364713,0
744,50 Tiong Bahru Road Singapore (168733),"American, Bar, International",Lin Rooftop Bar,1.2848792,103.8342762,0
745,"22 Orange Grove Road Lower Lobby, Tower Wing Shangri-La Hotel, Singapore Singapore (258350)",Buffet,The Line,1.3112195,103.8263306,44
746,541 Orchard Road#05-01Liat Towers Singapore (238881),"Buffet, Chinese, Vegetarian",LingZhi Vegetarian (Liat Towers),1.3051925,103.8305905,11
747,238 Thomson Road#03-09/10Velocity @ Novena Square Singapore (307683),"Chinese, Vegetarian",LingZhi Vegetarian (Velocity @ Novena Square),1.3198822,103.8439452,26
748,7 Binjai Park Singapore (589821),"Bar, Modern European, Italian, Vegetarian Friendly",LINO,1.3357693,103.7866948,17
749,1 Scotts Road#03-23Shaw Centre Singapore (228208),Italian,LINO Pizza & Pasta Bar,1.3063434,103.8318606,11
750,57 Eng Hoon Street#01-72Singapore (160057),Thai,Little Elephant SG Thai Bistro,1.2848656,103.8335292,0
751,3 Temasek Boulevard#03-304/305Sky Garden Suntec City Mall Singapore (038983),"Chinese, Steamboat, BBQ",Little Lamb Hotpot Suntec (小尾羊),1.2950331,103.8584935,12
752,789 Bukit Timah Road#01-01Singapore (269763),"American, All-Day Breakfast, Cafe",Little Lazy Lizard,1.3310677,103.7961449,17
753,1 Fullerton Road#01-05One Fullerton Singapore (049213),Steamboat,Little Sheep Hot Pot @ One Fullerton,1.2861349,103.8539595,49
754,277 Orchard Road#B1-13Orchard Gateway Singapore (238858),Steamboat,Little Sheep Hot Pot @ Orchard Gateway,1.3009584,103.8389111,38
755,20 Bukit Pasoh Road Singapore (089832),Bar,Live Twice,1.279116,103.8409437,31
756,"11 Cavenagh Road,Holiday Inn Singapore Orchard City Centre,Singapore (229616)","Bar, Seafood, Vegetarian Friendly, Pizza, Burgers",Lobby Lounge & Bar at Holiday Inn Singapore Orchard City Centre,1.3023125,103.8410344,38
757,320 Orchard Road Marriott Tang Plaza Singapore (238865),"Bar, International, Local, Cafe",Lobby Lounge @ Marriott Tang Plaza,1.3052151,103.8329675,11
758,22 Orange Grove Road Lobby Level Tower Wing Shangri-La Hotel Singapore Singapore (258350),"Buffet, Local, Peranakan",The Lobby Lounge @ Shangri-La Hotel,1.3112195,103.8263306,44
759,80 Middle Road Level 1Inter Continental Singapore Singapore (188966),International,The Lobby Lounge at InterContinental Singapore,1.2983644,103.8549173,16
760,12 Marina View Level 32Asia Square Tower 2Singapore (018961),"Bar, International, Seafood",Lobby Lounge at The Westin Singapore,1.2779532,103.8509025,4
761,136 Neil Road Singapore (088865),"Bar, Australian, All-Day Breakfast, Vegetarian Friendly",The Lokal,1.2783744,103.8408913,31
762,"68 Orchard Road #03-01/02,Plaza Singapura Singapore (238839)","American, Chinese, Seafood",Lokkee,1.3007882,103.8447839,38
763,22 Ann Siang Road Singapore (069702),International,Lolla,1.2810553,103.8456513,4
764,15 Duxton Road Singapore (089481),"Bar, International, Burgers",Lombardo's Singapore,1.2797794,103.8434123,31
765,25 Dempsey Road Singapore (249670),"Chinese, Seafood, Local",Long Beach @ Dempsey,1.3063069,103.8119617,20
766,60 Robertson Quay#01-14The Quayside Singapore (238252),"Chinese, Seafood, Local, Dim Sum",Long Beach @ Robertson Quay,1.2900873,103.8353025,0
